ceeb_id,name,latitude,longitude,inst,city,county,state,country
697032,INSTITUTE APPLIED TECHNOLOGY,24.317777,54.604738,HS,Abu Dhabi,,,UAE
53582,WESTERN CHRISTIAN HIGH SCHOOL,34.09624,-117.652576,HS,Upland,San Bernardino,CA,USA
2,MY SCHOOL IS NOT LISTED DOMEST,,,UNK,N/A,,,USA
998001,UNSPECIFIED APO PACIFIC,,,MIL,APO,,USMIL,US MILITARY
998000,UNSPECIFIED APO EUROPE,,,MIL,APO,,USMIL,US MILITARY
821030,BURNABY SOUTH SECONDARY SCHOOL,49.216012,-122.985157,HS,Burnaby,,BC,CANADA
4950,WESTMONT COLLEGE,34.448843,-119.661031,CC,Santa Barbara,Santa Barbara,CA,USA
694553,WEIHAI NO 1 HIGH SCHOOL,37.519264,122.093425,HS,Weihai,,,CHINA
694421,GUIYANG NO 1 HIGH SCHOOL,26.621229,106.628355,HS,Guiyang,,,CHINA
694425,HARBIN NO 3 HIGH SCHOOL,45.718745,126.537784,HS,Harbin,,,CHINA
694265,CHANGJUN HIGH SCHOOL-CHANGSHA,28.190412,112.875339,HS,Changsha,,,CHINA
821600,VANCOUVER COLLEGE,49.28473,-123.123086,HS,Vancouver,,BC,CANADA
821060,BRENTWOOD COLLEGE SCHOOL,48.652517,-123.554875,HS,Cowichan Valley,,BC,CANADA
821780,WEST VANCOUVER SECONDARY SCH,49.337816,-123.161138,HS,West Vancouver,,BC,CANADA
826401,WHITE OAKS SECONDARY SCHOOL,43.46348,-79.701964,HS,"Oakville",,ON,CANADA
821760,SENTINEL SECONDARY SCHOOL,49.345281,-123.150362,HS,West Vancouver,,BC,CANADA
826219,SIR WINSTON CHURCHILL SEC SCH,43.237438,-79.795833,HS,"Hamilton",,ON,CANADA
826422,ASHBURY COLLEGE,45.447736,-75.675783,HS,Ottawa,,ON,CANADA
821800,EARL MARRIOTT SECONDARY SCHOOL,49.031724,-122.785634,HS,"Surrey",,BC,CANADA
824270,ST GEORGES HIGH SCHOOL,49.247525,-123.199154,HS,Vancouver,,BC,CANADA
821805,SEMIAHMOO SECONDARY SCHOOL,49.034944,-122.813845,HS,"Surrey",,BC,CANADA
821749,COLLINGWOOD SCHOOL,49.360363,-123.120241,HS,West Vancouver,,BC,CANADA
821718,ST MARGARETS SCHOOL,48.480636,-123.363785,HS,"Victoria",,BC,CANADA
52448,SONOMA MOUNTAIN HIGH SCHOOL,38.241248,-122.597852,HS,Petaluma,Sonoma,CA,USA
52455,SAINT VINCENT HIGH SCHOOL,38.243386,-122.650076,HS,Petaluma,Sonoma,CA,USA
52460,PETALUMA HIGH SCHOOL,38.228005,-122.647517,HS,Petaluma,Sonoma,CA,USA
52678,RANCHO COTATE HIGH SCHOOL,38.341082,-122.683288,HS,Rohnert Park,Sonoma,CA,USA
643150,INTERNATIONAL SCH TANGANYIKA,-6.759919,39.277789,HS,Dar es Salaam,,,TANZANIA
653060,INTERNATIONAL SCH OF MYANMAR,16.840848,96.16186,HS,Yangon,,,MYANMAR
683082,NEW ENGLISH SCHOOL,29.315814,48.049818,HS,Kuwait City,,,KUWAIT
4129,UC MERCED,37.364875,-120.4254,4Y,Merced,Merced,CA,USA
4692,SANTA ROSA JUNIOR COLLEGE,38.4551932,-122.7201417,CC,Santa Rosa,Sonoma,CA,USA
7711,BERKELEY CITY COLLEGE,37.8698168,-122.2698541,CC,Berkeley,Alameda,CA,USA
52058,CAMPOLINDO HIGH SCHOOL,37.867829,-122.126253,HS,Moraga,Contra Costa,CA,USA
990054,NORWAY,,,NATION,N/A,,,NORWAY
990077,UNITED KINGDOM,,,NATION,N/A,,,UNITED KINGDOM
990031,IRAN,,,NATION,N/A,,,IRAN
930100,INTER-AMERICAN ACADEMY,25.802299,-80.222018,HS,Miami,,FL,USA
950290,ESCUELA CAMPO ALEGRE,10.482348,-66.869434,HS,Miami,,FL,USA
820242,WEBBER ACADEMY,51.044537,-114.225883,HS,Calgary,,AB,CANADA
52218,MAYBECK HIGH SCHOOL,37.860907,-122.252469,HS,Berkeley,Alameda,CA,USA
52483,CHARTER COMMUNITY SCHOOL,38.722081,-120.866778,HS,Placerville,El Dorado,CA,USA
30153,MOUNTAIN RIDGE HIGH SCHOOL,33.531753,-112.177935,HS,Glendale,,AZ,USA
30157,MESQUITE HIGH SCHOOL,33.335401,-111.815281,HS,Gilbert,,AZ,USA
52625,DE ANZA HIGH SCHOOL,37.967971,-122.2875,HS,Richmond,Contra Costa,CA,USA
4295,DIABLO VALLEY COLLEGE,37.968948,-122.071291,CC,Pleasant Hill,Contra Costa,CA,USA
694292,WUXI NO 1 HIGH SCHOOL,31.578432,120.28383,HS,Wuxi,,,CHINA
694297,XIAN GAO XIN NO 1 HIGH SCHOOL,34.223554,108.890665,HS,Xi'an,,,CHINA
694277,CHENGDU SHI SHI HIGH SCHOOL,30.651856,104.058197,HS,Chengdu,,,CHINA
694279,BEIJING LUHE HIGH SCHOOL,39.900945,116.653572,HS,Beijing,,,CHINA
694282,BEIJING SHUNYI NIULANSHAN FRST,40.207457,116.655265,HS,Beijing,,,CHINA
4502,MERRITT COLLEGE,37.7895327,-122.1656022,CC,Oakland,Alameda,CA,USA
6507,LAS POSITAS COLLEGE,37.711689,-121.7997617,CC,Livermore,Alameda,CA,USA
52879,GOMPERS HIGH,32.71612,-117.09278,HS,San Diego,San Diego,CA,USA
694266,FUZHOU NO 3 HIGH SCHOOL,26.087447,119.302409,HS,Fuzhou,,,CHINA
792070,AMERICAN SCHOOL OF BARCELONA,41.383901,2.084434,HS,BARCELONA,,,SPAIN
821650,MOUNT DOUGLAS SECONDARY SCHOOL,48.471374,-123.317976,HS,"Victoria",,BC,CANADA
748240,AMERICAN SCHOOL OF MILAN,45.393179,9.216577,HS,MILAN,,,ITALY
4011,CSU EAST BAY,37.656345,-122.056676,4Y,Hayward,Alameda,CA,USA
4048,CSU CHICO,39.729575,-121.847329,4Y,Chico,Butte,CA,USA
4059,HOLY NAMES UNIVERSITY,37.802174,-122.186752,4Y,Oakland,Alameda,CA,USA
4620,PATTEN UNIVERSITY,37.78626,-122.219542,4Y,Oakland,Alameda,CA,USA
30235,NOGALES HIGH SCHOOL,31.367144,-110.950185,HS,Nogales,,AZ,USA
50306,RICHMOND CA COLLEGE PREPRATORY,37.977326,-122.326516,HS,Berkeley,Contra Costa,CA,USA
50311,REALM CHARTER HIGH SCHOOL,37.869366,-122.288105,HS,Berkeley,Alameda,CA,USA
52630,JOHN F KENNEDY HIGH SCHOOL,37.924772,-122.328599,HS,Richmond,Contra Costa,CA,USA
989431,LAS POSITAS CMTY COLLEGE,37.711689,-121.7997617,CC,Livermore,Alameda,CA,USA
651002,INTERNATIONAL SCHOOL OF DHAKA,23.8008,90.419436,HS,Dhaka,,,BANGLADESH
50375,LIBERTY HIGH SCHOOL,37.935787,-121.693969,HS,Brentwood,Contra Costa,CA,USA
50430,CALIPATRIA HIGH SCHOOL,33.125711,-115.523904,HS,Calipatria,Imperial,CA,USA
654013,IBN KHULDOON NATIONAL SCH,26.158586,50.550765,HS,Isa Town,,,BAHRAIN
671921,NAVRACHANA INTL SCHL VADODARA,22.29419,73.121167,HS,Vadodara,,,INDIA
50662,DE LA SALLE HIGH SCHOOL,37.934401,-122.03135,HS,Concord,Contra Costa,CA,USA
50710,JOHN SWETT HIGH SCHOOL,38.052867,-122.221735,HS,Crockett,Contra Costa,CA,USA
50725,SAN RAMON VALLEY HIGH SCHOOL,37.826077,-122.00687,HS,Danville,Contra Costa,CA,USA
50982,CLOVIS WEST HIGH SCHOOL,36.86112,-119.762263,HS,Fresno,Fresno,CA,USA
682500,INTERNATIONAL CHRISTIAN SCHOOL,37.482588,126.769088,HS,Seoul,,,KOREA
687008,HWA CHONG INTERNATIONAL SCHOOL,1.326038,103.801323,HS,Singapore,,,SINGAPORE
54107,METROPOLITAN ARTS & TECH HS,37.732309,-122.382178,HS,San Francisco,San Francisco,CA,USA
53002,MACSA ACADEMIA CALMECAC,37.349789,-121.842115,HS,San Jose,Santa Clara,CA,USA
694267,SHANGHAI COMM INTL SC-HONGQIAO,31.198091,121.409137,HS,Shanghai,,,CHINA
694504,BEIJING BAYI HIGH SCHOOL,39.977941,116.305758,HS,Beijing,,,CHINA
694271,SUZHOU NO 10 SENIOR/MIDDLE SCH,31.300231,120.635137,HS,Suzhou,,,CHINA
52906,FIRST LUTHERAN HIGH SCHOOL,34.314313,-118.459599,HS,Sylmar,Los Angeles,CA,USA
54369,ANIMO LOCKE II CHARTER HS,33.935396,-118.268466,HS,Los Angeles,Los Angeles,CA,USA
142582,LAKE PARK HS-DISTRICT 108,41.973268,-88.055257,HS,Roselle,,IL,USA
30254,SUNRISE MOUNTAIN HIGH SCHOOL,33.677326,-112.238304,HS,Peoria,,AZ,USA
52190,CASTLEMONT BUS INFORM TECH SCH,37.759263,-122.163119,HS,Oakland,Alameda,CA,USA
54196,ALLIANCE COLLEGE-READY ACD #7,34.078001,-118.215701,HS,Los Angeles,Los Angeles,CA,USA
52240,OAKLAND TECHNICAL HIGH SCHOOL,37.832423,-122.25455,HS,Oakland,Alameda,CA,USA
52484,OAKLAND UNITY HIGH SCHOOL,37.773552,-122.184786,HS,Oakland,Alameda,CA,USA
20002,EAST ANCHORAGE HIGH SCHOOL,61.199736,-149.804222,HS,Anchorage,,AK,USA
694273,HANGZHOU FOREIGN LANGUAGES SCH,30.219962,120.035208,HS,Hangzhou,,,CHINA
53603,DR JAMES J HOGAN HIGH SCHOOL,38.101394,-122.215774,HS,Vallejo,Solano,CA,USA
54846,ILEAD HYBRID,34.186082,-118.453497,HS,Van Nuys,Los Angeles,CA,USA
53698,EAGLES PEAK CHARTER SCHOOL,33.172999,-117.219979,HS,Vista,San Diego,CA,USA
54799,COLLEGE BRIDGE ACADEMY,33.94338,-118.239813,HS,Los Angeles,Los Angeles,CA,USA
52895,STEPHEN W KEARNY HIGH SCHOOL,32.800175,-117.160542,HS,San Diego,San Diego,CA,USA
54235,ANIMO LOCKE TECH CHARTER HS,33.918014,-118.264471,HS,Los Angeles,Los Angeles,CA,USA
694274,CHENGDU FOREIGN LANGUAGE SCH,30.73358,103.981168,HS,Chengdu,,,CHINA
694541,GUANGDONG COUNTRY GARDEN SCH,22.943743,113.275307,HS,Shenzhen,,,CHINA
694534,GUANGZHOU NO 6 HIGH SCHOOL,23.097321,113.307083,HS,Guangzhou,,,CHINA
20000,WEST ANCHORAGE HIGH SCHOOL,61.199717,-149.91657,HS,Anchorage,,AK,USA
20001,BARTLETT HIGH SCHOOL,61.232308,-149.733224,HS,Anchorage,,AK,USA
30541,CIENEGA HIGH SCHOOL,32.057408,-110.721952,HS,Vail,,AZ,USA
30544,WILLOW CANYON HIGH SCHOOL,33.635233,-112.443197,HS,Surprise,,AZ,USA
697006,ABU DHABI INTERNATIONAL SCHOOL,24.429655,54.431307,HS,Abu Dhabi,,,UAE
50003,AGOURA HIGH SCHOOL,34.150396,-118.748879,HS,Agoura Hills,Los Angeles,CA,USA
50006,OAK PARK HIGH SCHOOL,34.180259,-118.763754,HS,Oak Park,Ventura,CA,USA
50008,VASQUEZ HIGH SCHOOL,34.493484,-118.21636,HS,Acton,Los Angeles,CA,USA
50015,ENCINAL HIGH SCHOOL,37.772635,-122.289529,HS,Alameda,Alameda,CA,USA
30256,CENTENNIAL HIGH SCHOOL,35.398269,-119.097976,HS,Peoria,,AZ,USA
30260,PEORIA HIGH SCHOOL,33.573244,-112.245852,HS,Peoria,,AZ,USA
30517,IRONWOOD RIDGE HIGH SCHOOL,34.104794,-117.29215,HS,Tucson,,AZ,USA
52196,FAR WEST HIGH SCHOOL,37.836745,-122.249059,HS,Oakland,Alameda,CA,USA
52205,FREMONT HIGH SCHOOL,37.774198,-122.209378,HS,Oakland,Alameda,CA,USA
52213,FAME PUBLIC CHARTER SCHOOL,37.521436,-121.993919,HS,Newark,Alameda,CA,USA
52497,FOOTHILL HIGH SCHOOL,37.670898,-121.919401,HS,Pleasanton,Alameda,CA,USA
30503,SABINO HIGH SCHOOL,32.217975,-110.970869,HS,Tucson,,AZ,USA
54840,SYLMAR BIOTECH HEALTH ACADEMY,34.307275,-118.441363,HS,Sylmar,Los Angeles,CA,USA
30506,GREGORY SCHOOL THE,32.217975,-110.970869,HS,Tucson,,AZ,USA
30220,MESA HIGH SCHOOL,33.440695,-111.856967,HS,Mesa,,AZ,USA
30221,RED MOUNTAIN HIGH SCHOOL,33.440695,-111.856967,HS,Mesa,,AZ,USA
30216,DOBSON HIGH SCHOOL,33.440695,-111.856967,HS,Mesa,,AZ,USA
694210,TAIPEI AMERICAN SCHOOL,25.116916,121.529112,HS,Taipei,,,TAIWAN
30257,CACTUS HIGH SCHOOL,33.626735,-112.196601,HS,Glendale,,AZ,USA
30504,SAHUARO HIGH SCHOOL,32.226824,-110.807864,HS,Tucson,,AZ,USA
30514,BASIS TUCSON NORTH,32.272881,-110.871116,HS,Tucson,,AZ,USA
30530,TUCSON HIGH MAGNET SCHOOL,32.227108,-110.961977,HS,Tucson,,AZ,USA
40770,FAYETTEVILLE HIGH SCHOOL,36.057451,-94.174068,HS,Fayetteville,,AR,USA
41422,CENTRAL HIGH SCHOOL,34.7368,-92.298687,HS,Little Rock,,AR,USA
50410,BURLINGAME HIGH SCHOOL,37.58225,-122.346795,HS,Burlingame,San Mateo,CA,USA
50420,VINCENT MEMORIAL CATHOLIC HS,32.677689,-115.506428,HS,Calexico,Imperial,CA,USA
50421,CALABASAS HIGH SCHOOL,34.138889,-118.62786,HS,Calabasas,Los Angeles,CA,USA
50423,VIEWPOINT SCHOOL,34.135461,-118.643024,HS,Calabasas,Los Angeles,CA,USA
50435,CALISTOGA HIGH SCHOOL,38.583372,-122.579924,HS,Calistoga,Napa,CA,USA
50455,MOUNTAIN EMPIRE HIGH SCHOOL,32.734352,-116.492946,HS,Pine Valley,San Diego,CA,USA
50465,CANOGA PARK HIGH SCHOOL,34.195422,-118.605518,HS,Canoga Park,Los Angeles,CA,USA
50466,TORREY PINES HIGH SCHOOL,32.957437,-117.226188,HS,Encinitas,San Diego,CA,USA
50469,SANTA CLARITA CHRISTIAN SCHOOL,34.413298,-118.464506,HS,Santa Clarita,Los Angeles,CA,USA
50471,CARLSBAD SEASIDE ACADEMY,33.163498,-117.328002,HS,Carlsbad,San Diego,CA,USA
50472,CARLSBAD HIGH SCHOOL,33.162415,-117.326925,HS,Carlsbad,San Diego,CA,USA
50475,CARMEL HIGH SCHOOL,36.554223,-121.909252,HS,Carmel,Monterey,CA,USA
50481,VICTORY CHRISTIAN SCHOOLS,38.620394,-121.337127,HS,Carmichael,Sacramento,CA,USA
50485,CATE SCHOOL,34.405005,-119.477381,HS,Carpinteria,Santa Barbara,CA,USA
50490,CARPINTERIA HIGH SCHOOL,34.411245,-119.516852,HS,Carpinteria,Santa Barbara,CA,USA
50495,CARUTHERS HIGH SCHOOL,36.539265,-119.838424,HS,Caruthers,Fresno,CA,USA
50591,VISIONS IN EDUCATION,38.609182,-121.346958,HS,Carmichael,Sacramento,CA,USA
53131,SERRA HIGH,33.519982,-117.667954,HS,San Juan Capistrano,Orange,CA,USA
53908,SAN DIEGO LEADS,32.716294,-117.167021,HS,San Diego,San Diego,CA,USA
52885,SAN DIEGO HIGH SCHOOL,32.720003,-117.153176,HS,San Diego,San Diego,CA,USA
54435,SCHOOL SCI TEC ENG MATH AT RHS,34.037515,-118.211977,HS,Los Angeles,Los Angeles,CA,USA
54434,ACADEMY MED HEALTH SCI AT RHS,34.065894,-118.443361,HS,Los Angeles,Los Angeles,CA,USA
52182,BEACON HIGH SCHOOL,37.780561,-122.240848,HS,Oakland,Alameda,CA,USA
52495,AMADOR VALLEY HIGH SCHOOL,37.66791,-121.873914,HS,Pleasanton,Alameda,CA,USA
52897,CRAWFORD HIGH SCHOOL,32.752197,-117.075869,HS,San Diego,San Diego,CA,USA
53898,SAN DIEGO CIMA,32.989265,-117.089875,HS,San Diego,San Diego,CA,USA
53901,SAN DIEGO BUSINESS LEADERSHIP,32.892302,-117.241642,HS,San Diego,San Diego,CA,USA
53896,CRAWFORD CHAMPS,32.752197,-117.075869,HS,San Diego,San Diego,CA,USA
60364,UNIVERSITY OF DENVER HS,39.676617,-104.961896,HS,Denver,,CO,USA
102048,KAPLAN COLLEGE PREPARATORY SCH,26.015085,-80.195819,HS,Hollywood,,FL,USA
4056,WEST HILLS COLLEGE COALINGA,36.1478043,-120.3570364,CC,Coalinga,Fresno,CA,USA
30455,AMPHITHEATER HIGH SCHOOL,32.268977,-110.975022,HS,Tucson,,AZ,USA
703113,SAINT CUTHBERTS COLLEGE,-36.887397,174.779381,HS,Auckland,,,NEW ZEALAND
705560,GRACE CHRISTIAN COLLEGE,14.650349,121.005321,HS,Manila,,,PHILIPPINES
695180,EKAMAI INTERNATIONAL SCHOOL,13.730953,100.592325,HS,Bangkok,,,THAILAND
695209,INTERNATIONAL COMMUNITY SCHOOL,13.666592,100.651831,HS,Bangkok,,,THAILAND
30473,CANYON DEL ORO HIGH SCHOOL,32.375004,-110.971125,HS,Oro Valley,,AZ,USA
30476,CATALINA FOOTHILLS HIGH SCHOOL,32.306341,-110.899655,HS,Tucson,,AZ,USA
50005,ALAMEDA HIGH SCHOOL,37.7643,-122.247318,HS,Alameda,Alameda,CA,USA
50011,ALAMEDA COMMUNITY LEARNING CTR,37.779457,-122.287211,HS,Alameda,Alameda,CA,USA
50013,ALTERNATIVES IN ACTION HS,37.764451,-122.195459,HS,Alameda,Alameda,CA,USA
50025,ST JOSEPH HIGH,37.765541,-122.255374,HS,Alameda,Alameda,CA,USA
692127,KING FAISAL SCHOOL,24.684343,46.620258,HS,Riyadh,,,SAUDI ARABIA
20045,HOMER HIGH SCHOOL,59.6425,-151.54833,HS,Homer,,AK,USA
692125,AMERICAN INTRNTL SCHOOL JEDDAH,21.600928,39.129326,HS,Jeddah,,,SAUDI ARABIA
50029,ALAMEDA SCIENCE & TECHLGY INST,37.78147,-122.280674,HS,Alameda,Alameda,CA,USA
50120,PIERCE HIGH SCHOOL,39.010385,-122.054548,HS,Arbuckle,Colusa,CA,USA
50215,GARCES MEMORIAL HIGH SCHOOL,35.398039,-119.002311,HS,Bakersfield,Kern,CA,USA
694789,BRITISH SCHOOL OF BEIJING,39.944391,116.452449,HS,Beijing,,,CHINA
694255,DULWICH COLLEGE SHANGHAI,31.237812,121.584684,HS,Shanghai,,,CHINA
694257,SHEKOU INTERNATIONAL SCHOOL,22.481264,113.911795,HS,Shekou,,,CHINA
694261,SUZHOU HS OF JIANGSU PROVINCE,31.29642,120.623303,HS,Suzhou,,,CHINA
694264,CUI YUAN MIDDLE SCHOOL,28.149501,113.638233,HS,Liuyang,,,CHINA
694543,TIANJIN YINGHUA INTN'L SCHOOL,39.384513,117.038947,HS,Tianjin,,,CHINA
694520,WUXI BIG BRIDGE ACADEMY,31.471497,120.37688,HS,Wuxi,,,CHINA
694402,NANJING FORGN LNG SCH-XIANLIN,32.056151,118.801452,HS,Nanjing,,,CHINA
53897,CRAWFORD LAW AND BUSINESS,32.753423,-117.076351,HS,San Diego,San Diego,CA,USA
53894,CRAWFORD IDEA,32.752197,-117.075869,HS,San Diego,San Diego,CA,USA
53892,CRAWFORD MULTIMEDIA & VIS ARTS,32.753423,-117.076351,HS,San Diego,San Diego,CA,USA
230350,ANDOVER HIGH SCHOOL,42.578784,-83.285608,HS,Bloomfield Hills,,MI,USA
440293,ALBERT SIDNEY JOHNSTON HS,30.258016,-97.681468,HS,Austin,,TX,USA
70244,GREENWICH HIGH SCHOOL SHELDON,41.039768,-73.612239,HS,Greenwich,,CT,USA
70243,GREENWICH HIGH SCHOOL FOLSOM,41.039768,-73.612239,HS,Greenwich,,CT,USA
70242,GREENWICH HIGH SCHOOL CANTOR,41.039768,-73.612239,HS,Greenwich,,CT,USA
70241,GREENWICH HIGH SCHOOL CLARK,41.039768,-73.612239,HS,Greenwich,,CT,USA
330578,BISHOP FORD CENTRAL CATHOLIC H,40.656204,-73.982638,HS,Brooklyn,,NY,USA
50610,CLOVERDALE HIGH SCHOOL,38.811047,-123.022039,HS,Cloverdale,Sonoma,CA,USA
4398,LOS ANGELES PIERCE COLLEGE,34.184746,-118.576147,CC,Woodland Hills,Los Angeles,CA,USA
4691,SANTA MONICA COLLEGE,34.017023,-118.469755,CC,Santa Monica,Los Angeles,CA,USA
4078,COMPTON COLLEGE,33.874415,-118.208851,CC,Compton,Los Angeles,CA,USA
4083,CERRITOS COLLEGE,33.8863737,-118.0946408,CC,Norwalk,Los Angeles,CA,USA
4117,COLLEGE OF THE CANYONS,34.4042459,-118.5682302,CC,Santa Clarita,Los Angeles,CA,USA
120172,KULA HIGH AND INTERMEDIATE SCH,22.188399,-159.361961,HS,Kilauea,,HI,USA
20031,CHUGIAK HIGH SCHOOL,61.393834,-149.424631,HS,Eagle River,,AK,USA
20055,JUNEAU-DOUGLAS HIGH SCHOOL,58.373561,-134.523946,HS,Juneau,,AK,USA
30208,LIBERTY HIGH SCHOOL,35.36623,-119.128796,HS,Peoria,,AZ,USA
53928,SANTA CRUZ WALDORF HIGH SCHOOL,37.006113,-122.073619,HS,Santa Cruz,Santa Cruz,CA,USA
4017,BIOLA UNIVERSITY,33.906165,-118.014797,4Y,La Mirada,Los Angeles,CA,USA
52942,CORTEZ HILL ACADEMY,32.718713,-117.162743,HS,San Diego,San Diego,CA,USA
53895,RENAISSANCE ACADEMY,34.041779,-118.175013,HS,Pacific Palisade,Los Angeles,CA,USA
480415,GARFIELD HIGH SCHOOL,47.605338,-122.301866,HS,Garfield,,WA,USA
4034,CALIF INSTITUTE TECH,34.137658,-118.125269,4Y,Pasadena,Los Angeles,CA,USA
694585,ENGLISH SCHOOL GUANGDONG UNIV,23.243216,113.256575,HS,Guangzhou,,,CHINA
694310,AMERICAN SCHOOL IN TAICHUNG,24.169346,120.744142,HS,Taichung,,,TAIWAN
694248,NO 2 HS EAST CHINA NORMAL UNIV,31.200426,121.591542,HS,Shanghai,,,CHINA
694247,DALIAN AMERICAN INTRNTL SCHOOL,39.07375,121.962322,HS,Dalian,,,CHINA
694249,FUDAN INTERNATIONAL SCHOOL,31.29742,121.503618,HS,Shanghai,,,CHINA
694383,BEIJING HUIJIA PRIVATE SCHOOL,40.191953,116.251979,HS,Beijing,,,CHINA
694385,BEIJING NO 12 HIGH SCHOOL,39.959975,116.371818,HS,Beijing,,,CHINA
694580,AFFILIATED HS FUJIAN NORMAL U,26.036954,119.310025,HS,Fuzhou,,,CHINA
694365,SUZHOU NO 1 HIGH SCHOOL,31.306829,120.629076,HS,Suzhou,,,CHINA
4296,EAST LOS ANGELES COLLEGE,34.0396421,-118.1480877,CC,Monterey Park,Los Angeles,CA,USA
4327,GLENDALE COMMUNITY COLLEGE,34.1663611,-118.2284031,CC,Glendale,Los Angeles,CA,USA
4388,LONG BEACH CITY COLLEGE,33.8327377,-118.1348672,CC,Long Beach,Los Angeles,CA,USA
4391,LOS ANGELES CITY COLLEGE,34.0872424,-118.2926756,CC,Los Angeles,Los Angeles,CA,USA
4395,LOS ANGELES HARBOR COLLEGE,33.7841,-118.2840891,CC,Wilmington,Los Angeles,CA,USA
4400,LOS ANGELES TRADE-TECH COLLEGE,34.0328481,-118.2696947,CC,Los Angeles,Los Angeles,CA,USA
4401,LOS ANGELES VALLEY COLLEGE,34.1757062,-118.4201438,CC,Van Nuys,Los Angeles,CA,USA
4494,MOUNT SAN ANTONIO COLLEGE,34.0476932,-117.8448584,CC,Walnut,Los Angeles,CA,USA
4604,PASADENA CITY COLLEGE,34.1438126,-118.1181603,CC,Pasadena,Los Angeles,CA,USA
4663,RIO HONDO COLLEGE,34.019466,-118.033803,CC,Whittier,Los Angeles,CA,USA
4964,WEST LOS ANGELES COLLEGE,34.0022725,-118.3861991,CC,Culver City,Los Angeles,CA,USA
5546,LOS ANGELES VALLEY COLLEGE,34.1757062,-118.4201438,CC,Van Nuys,Los Angeles,CA,USA
4955,WOODBURY UNIVERSITY,34.208473,-118.341513,CC,Burbank,Los Angeles,CA,USA
713159,VIENNA INTERNATIONAL SCHOOL,48.244774,16.431886,HS,Vienna,,,AUSTRIA
696580,ENKA SCHOOLS,41.113361,29.034819,HS,Istanbul,,,TURKEY
30200,MARANA HIGH SCHOOL,32.217975,-110.970869,HS,Tucson,,AZ,USA
51792,SHALHEVET HIGH SCHOOL,34.059235,-118.362812,HS,Los Angeles,Los Angeles,CA,USA
4403,LOYOLA MARYMOUNT UNIVERSITY,33.969818,-118.418497,4Y,Los Angeles,Los Angeles,CA,USA
731472,ERMITAGE,48.954615,2.155446,HS,Paris,,,FRANCE
738000,ST CATHERINES BRITISH SCHOOL,38.074669,23.792471,HS,Athens,,,GREECE
734775,FRANKFURT INTERNATIONAL SCHOOL,50.213658,8.542729,HS,Frankfurt,,,GERMANY
731270,AMERICAN SCHOOL OF PARIS,48.840744,2.197753,HS,Paris,,,FRANCE
695519,CONCORDIAN INTERNATIONAL SCH,13.63828,100.674083,HS,Bangkok,,,THAILAND
695518,HARROW INTERNATIONAL SCHOOL,13.904504,100.585138,HS,Bangkok,,,THAILAND
695346,WELLS INTERNATIONAL SCHOOL,13.727768,100.576883,HS,Bangkok,,,THAILAND
696162,GERMAN HIGH SCHOOL OF ISTANBUL,41.027991,28.975769,HS,Istanbul,,,TURKEY
692155,BRITISH INTRNTL SCHOOL-RIYADH,24.791196,46.73002,HS,Riyadh,,,SAUDI ARABIA
692129,BRITISH INTL SCHOOL OF JEDDAH,21.646759,39.124646,HS,Jeddah,,,SAUDI ARABIA
53981,HAWTHORNE MATH & SCIENCE ACAD,33.920203,-118.354265,HS,Hawthorne,Los Angeles,CA,USA
54036,MCCLYMONDS HIGH SCHOOL,37.770563,-122.264779,HS,Oakland,Alameda,CA,USA
54100,YOUTH EMPOWERMENT SCHOOL,37.765837,-122.153865,HS,Oakland,Alameda,CA,USA
54382,FELICITAS GONZALO MENDEZ HS,34.048375,-118.226695,HS,Los Angeles,Los Angeles,CA,USA
54432,SCHOOL LAW & GOVERNMENT AT RHS,34.037506,-118.211979,HS,Los Angeles,Los Angeles,CA,USA
100251,PALM HARBOR UNIV HIGH SCHOOL,28.085656,-82.762612,HS,Palm Harbor,,FL,USA
724792,ETON COLLEGE,51.495735,0.60444,HS,Windsor,,,ENGLAND
724681,SEVENOAKS SCHOOL,51.266995,0.194152,HS,Sevenoaks,,,ENGLAND
724456,DULWICH COLLEGE,51.44029,0.085146,HS,London,,,ENGLAND
724190,ACS COBHAM INTL SCHOOL,51.348122,-0.401789,HS,Cobham,,,ENGLAND
697071,GEMS OUR OWN ENGLISH HS-DUBAI,25.193374,55.425394,HS,Dubai,,,UAE
697009,DUBAI COLLEGE,25.110025,55.169664,HS,Dubai,,,UAE
697069,UNIVERSAL AMERICAN SCHOOL,25.221054,55.365815,HS,Dubai,,,UAE
697027,DUBAI INTERNATIONAL ACADEMY,25.078447,55.179167,HS,Dubai,,,UAE
697067,GEMS WORLD ACADEMY,24.481407,54.378472,HS,Abu Dhabi,,,UAE
697030,EMIRATES INTRNTNL SCHL MEADOWS,25.064872,55.156037,HS,Dubai,,,UAE
697036,DUBAI MODERN HIGH SCHOOL,25.153504,55.375977,HS,Dubai,,,UAE
697035,JUMEIRAH COLLEGE,25.17661,55.23549,HS,Dubai,,,UAE
697083,DUBAI ENGLISH SPEAKING COLLEGE,25.105931,55.399812,HS,Dubai,,,UAE
700220,REDLANDS,-27.573321,153.344665,HS,Brisbane,,,AUSTRALIA
697053,DUBAI MODERN EDUCATION SCHOOL,25.238884,55.427434,HS,Dubai,,,UAE
698100,BRITISH INTL SCHL HO CHI MINH,10.719249,106.685754,HS,Ho Chi Minh City,,,VIETNAM
697050,AMERICAN SCHOOL OF DUBAI THE,25.0997,55.182887,HS,Dubai,,,UAE
697001,AMERICAN CMTY SCH OF ABU DHABI,24.463556,54.340438,HS,Abu Dhabi,,,UAE
697012,DUBAI AMERICAN ACADEMY,25.104346,55.181067,HS,Dubai,,,UAE
697206,BRITISH SCHOOL AL KHUBAIRAT,24.447995,54.386693,HS,Abu Dhabi,,,UAE
697024,EMIRATES INTERNATIONAL SCHOOL,25.380274,55.425531,HS,Dubai,,,UAE
700761,GEELONG GRAMMAR SCHOOL,-38.07015,144.398852,HS,Geelong,,,AUSTRALIA
696200,SAINT JOSEPH PRIVATE FRENCH HS,40.983038,29.028676,HS,Istanbul,,,TURKEY
910650,ESCOLA GRADUADA DE SAO PAULO,-23.620221,-46.73402,HS,Sao Paolo,,,BRAZIL
834250,LINCOLN SCHOOL,9.970318,-84.066814,HS,San Jose,,,COSTA RICA
705819,IMMACULATE CONCEPTION ACADEMY,14.602485,121.041797,HS,Manila,,,PHILIPPINES
705380,BRITISH SCHOOL MANILA,14.556157,121.056608,HS,Manila,,,PHILIPPINES
697045,ABU DHABI INDIAN SCHOOL,24.44481,54.410621,HS,Abu Dhabi,,,UAE
698010,INTERNATIONAL SCHL HCMC,10.806027,106.74733,HS,Ho Chi Minh City,,,VIETNAM
705440,ATENEO DE MANILA HIGH SCHOOL,14.639451,121.078092,HS,Manila,,,PHILIPPINES
697026,JEDDAH KNOWLEDGE SCHOOL,21.603899,39.146207,HS,Jeddah,,,UAE
705640,XAVIER SCHOOL,14.604058,121.039702,HS,Manila,,,PHILIPPINES
697051,INTERNATIONAL SCHOOL CHOUEIFAT,24.456152,54.381447,HS,Abu Dhabi,,,UAE
705450,BRENT INTERNATIONAL SCH MANILA,14.302972,121.08198,HS,Manila,,,PHILIPPINES
692162,RIYADH SCHOOLS FOR BOYS/GIRLS,24.655368,46.726122,HS,Riyadh,,,SAUDI ARABIA
692119,COLLEGE PREPARATORY CENTER,26.325357,50.136541,HS,Dhahran,,,SAUDI ARABIA
53751,CASCADE SCHOOL,40.64376,-121.803128,HS,Whitmore,Shasta,CA,USA
53854,COLLEGE PREP AND ARCH ACADEMY,37.797668,-122.252652,HS,Oakland,Alameda,CA,USA
53859,MEDIA ACADEMY HIGH SCHOOL,37.774386,-122.210241,HS,Oakland,Alameda,CA,USA
52995,J EUGENE MCATEER HIGH SCHOOL,37.745416,-122.448646,HS,San Francisco,San Francisco,CA,USA
998002,UNSPECIFIED FPO EUROPE,,,MIL,FPO,,USMIL,US MILITARY
50228,SIERRA VISTA HIGH SCHOOL,34.07546,-117.979447,HS,Baldwin Park,Los Angeles,CA,USA
50715,CULVER CITY HIGH SCHOOL,34.006845,-118.401314,HS,Culver City,Los Angeles,CA,USA
51264,SOUTH BAY LUTHERAN HIGH SCHOOL,33.930546,-118.335922,HS,Inglewood,Los Angeles,CA,USA
51621,SOUTH REGION HS #2-PRFRM ARTS,34.008262,-118.292173,HS,Los Angeles,Los Angeles,CA,USA
51728,WALLIS ANNENBERG HIGH SCHOOL,34.010469,-118.273796,HS,Los Angeles,Los Angeles,CA,USA
51830,WESTCHESTER HIGH SCHOOL,33.958288,-118.428723,HS,Los Angeles,Los Angeles,CA,USA
51852,WILDWOOD SCHOOL,34.033862,-118.451536,HS,Los Angeles,Los Angeles,CA,USA
51869,SOAR HIGH SCHOOL,34.67852,-118.187957,HS,Lancaster,Los Angeles,CA,USA
52133,CAMPBELL HALL,34.15261,-118.397774,HS,North Hollywood,Los Angeles,CA,USA
52136,VALLEY TORAH HIGH SCHOOL,34.168933,-118.405984,HS,North Hollywood,Los Angeles,CA,USA
52154,VALLEY ALTERNATIVE SCHOOL,34.192198,-118.501344,HS,Van Nuys,Los Angeles,CA,USA
52419,WAVERLY SCHOOL,34.138497,-118.151895,HS,Pasadena,Los Angeles,CA,USA
51795,SUSAN MILLER DORSEY SENIOR HS,34.022818,-118.346343,HS,Los Angeles,Los Angeles,CA,USA
20028,WEST VALLEY HIGH SCHOOL,40.601263,-122.494455,HS,Fairbanks,,AK,USA
820080,ERNEST MANNING HIGH SCHOOL,51.036171,-114.18905,HS,Calgary,,AB,CANADA
826951,EARL HAIG SECONDARY SCHOOL,43.76966,-79.406734,HS,Toronto,,ON,CANADA
821028,BURNABY NORTH SECONDARY SCHOOL,49.277805,-122.972848,HS,Burnaby,,BC,CANADA
821570,SIR WINSTON CHURCHILL HS,51.100124,-114.140082,HS,Calgary,,AB,CANADA
820190,STRATHCONA-TWEEDSMUIR SCHOOL,50.775116,-114.030876,HS,"De Winton",,AB,CANADA
821430,ERIC HAMBER SECONDARY SCHOOL,49.239834,-123.124986,HS,Vancouver,,BC,CANADA
821350,FRASER HEIGHTS SECONDARY,49.197873,-122.777013,HS,Surrey,,BC,CANADA
821091,GLENEAGLE SECONDARY SCHOOL,49.284219,-122.806871,HS,Coquitlam,,BC,CANADA
826369,GLENFOREST SECONDARY SCHOOL,43.627253,-79.592964,HS,"Mississauga",,ON,CANADA
821102,ELGIN PARK SECONDARY SCHOOL,49.045553,-122.848589,HS,Surrey,,BC,CANADA
694364,CHENG DU MEISHI INTRNTL SCHL,30.53848,104.066372,HS,Chongqing,,,CHINA
51834,WEST LOS ANGELES BAPTIST SCH,34.042079,-118.455094,HS,Los Angeles,Los Angeles,CA,USA
51843,WEST COAST TALMUDICAL SEMINARY,34.085437,-118.346508,HS,Los Angeles,Los Angeles,CA,USA
51850,WESTCHESTER-EMERSON COMM ADULT,33.956471,-118.404073,HS,Los Angeles,Los Angeles,CA,USA
52491,WILLIAM J PETE KNIGHT HIGH SCH,34.562737,-118.008764,HS,Palmdale,Los Angeles,CA,USA
694466,GUANGZHOU XIANGJIANG HIGH SCHL,23.149379,113.356333,HS,Guangzhou,,,CHINA
990290,HAWAII,,,STATE,N/A,,HI,USA
694305,DOMINICAN INTERNATIONAL SCH,25.08419,121.546365,HS,Taipei,,,TAIWAN
694607,WUHAN NO 2 HIGH SCHOOL-ST MARY,30.434814,114.449178,HS,Wuhan,,,CHINA
694370,CHENGDU SHUDE HIGH SCHOOL,30.667662,103.969472,HS,Chengdu,,,CHINA
694335,DULWICH COLLEGE SUZHOU,31.307373,120.772292,HS,Suzhou,,,CHINA
694373,NAN TONG MIDDLE SCH OF JIANGSU,32.02116,120.864347,HS,Nantong,,,CHINA
694478,NO 2 MIDDLE SCHOOL OF YANTAI,37.561732,121.237715,HS,Yantai,,,CHINA
694500,NO 2 HIGH SHIJIAZHUANG HEBEI,38.051092,114.478647,HS,Shijiazhuang,,,CHINA
694503,CHONGQING NO 8 SECONDARY SCHL,29.590109,106.46651,HS,Chongqing,,,CHINA
694575,BEIJING NO 35 HIGH SCHOOL,39.909541,116.364677,HS,Beijing,,,CHINA
694485,NANJING NO 1 HIGH SCHOOL,32.027439,118.784403,HS,Nanjing,,,CHINA
694356,GUANGZHOU FOREIGN LANGUAGE SCH,22.781965,113.520411,HS,Guangzhou,,,CHINA
694355,ZHANGJIAGANG IVY EXPERIMENTAL,31.875572,120.556005,HS,Zhangjiagang,,,CHINA
694227,BEIJING NO 80 HIGH SCHOOL,39.928298,116.459042,HS,Beijing,,,CHINA
694492,AFFILIATED HIGH GUANGZHOU UNIV,23.137384,113.345153,HS,Guangzhou,,,CHINA
694220,CONCORDIA INTER SCHOOL SHANGHA,31.238731,121.59131,HS,Shanghai,,,CHINA
694230,CAMFORD ROYAL SCHOOL,40.103759,116.394347,HS,Beijing,,,CHINA
671670,BOMBAY SCOTTISH SCHOOL,19.03382,72.839231,HS,Mumbai,,,INDIA
51804,ALLIANCE CINDY/BILL SIMON TECH,33.938624,-118.238717,HS,Los Angeles,Los Angeles,CA,USA
52342,BISHOP QUINN HIGH SCHOOL,40.561995,-122.243103,HS,Palo Cedro,Shasta,CA,USA
694218,SHENYANG INTERNATIONAL SCHOOL,41.680116,123.431766,HS,Shenyang,,,CHINA
694495,FUXING SENIOR HIGH SCHOOL,31.294436,121.482539,HS,Shanghai,,,CHINA
694215,SHANGHAI SINGAPORE INTN SCH,31.217175,121.273349,HS,Shanghai,,,CHINA
694214,BRITISH COLUMBIA ACADEMY,32.056151,118.801452,HS,Nanjing,,,CHINA
694217,YEW CHUNG INTL SCH OF SHANGHAI,31.214714,121.567758,HS,Shanghai,,,CHINA
694480,ZHEJIANG JINHUA AIQING SCHOOL,29.10015,119.656743,HS,Jinhua,,,CHINA
694440,ZHENGZHOU NO 7 MIDDLE SCHOOL,34.828885,113.668924,HS,Zhengzhou,,,CHINA
694566,ZHENGZHOU NO 1 HIGH SCHOOL,34.748974,113.561071,HS,Zhengzhou,,,CHINA
694351,GUANG YA SCHOOL,31.002809,103.664265,HS,Chengdu,,,CHINA
796820,COLLEGE DU LEMAN INTL SCHOOL,46.289163,6.159289,HS,Geneva,,,SWITZERLAND
796860,COLLEGE ALPIN INTNL BEAU SOLEI,46.298895,7.052822,HS,Villars-sur-Ollon,,,SWITZERLAND
796330,ZURICH INTERNATIONAL SCHOOL,47.32114,8.551139,HS,Zurich,,,SWITZERLAND
30410,VERDE VALLEY SCHOOL,34.808624,-111.80372,HS,Sedona,,AZ,USA
30417,BUENA HIGH SCHOOL,31.570261,-110.238283,HS,Sierra Vista,,AZ,USA
50363,BORREGO SPRINGS HIGH SCHOOL,33.264346,-116.383687,HS,Borrego Springs,San Diego,CA,USA
50440,COAST UNION HIGH SCHOOL,35.568247,-121.067753,HS,Cambria,San Luis Obispo,CA,USA
50462,AGBU MANOOGIAN-DEMIRDJIAN SCH,34.195142,-118.566229,HS,Canoga Park,Los Angeles,CA,USA
51779,ALLIANCE DR OLGA MOHAN HIGH SC,34.036877,-118.272002,HS,Los Angeles,Los Angeles,CA,USA
671049,VIDYASHILP ACADEMY,13.087583,77.597139,HS,Bengaluru,,,INDIA
671657,SREENIDHI INTERNATIONAL SCHOOL,17.338168,78.341813,HS,Hyderabad,,,INDIA
724560,WESTMINSTER SCHOOL,51.498171,0.127978,HS,Westminster,,,ENGLAND
989996,YESHIVA UNIV OF LOS ANGELES,34.05388,-118.401293,4Y,Los Angeles,Los Angeles,CA,USA
51214,ASPIRE PACIFIC ACADEMY,33.990428,-118.225459,HS,Huntington Park,Los Angeles,CA,USA
694431,XIAN MIDDLE SCH SHAANXI PROVNC,34.332479,108.935632,HS,Xi'an,,,CHINA
51776,AMBASSADOR SCHL GLOBAL LDRSHP,34.059889,-118.296802,HS,Los Angeles,Los Angeles,CA,USA
696031,BILKENT UNIVERSITY PREP SCH,39.865904,32.764414,HS,Ankara,,,TURKEY
694436,TAIPEI MUNICIPAL JIANGUO HIGH,25.031112,121.512181,HS,Taipei,,,TAIWAN
694536,TAIPEI WEGO PRIVATE SENIOR HS,25.139108,121.503582,HS,Taipei,,,TAIWAN
52541,HIGHLAND HIGH SCHOOL,34.592219,-118.175549,HS,Palmdale,Los Angeles,CA,USA
52653,ARMENIAN MESROBIAN HIGH SCHOOL,34.011096,-118.09066,HS,Pico Rivera,Los Angeles,CA,USA
576325,STUTTGART HIGH SCHOOL,48.68311,9.054439,HS,APO,,,US MILITARY
671072,BISHOP COTTON BOYS SCHOOL,12.968451,77.598863,HS,Bengaluru,,,INDIA
724207,WELLINGTON COLLEGE,51.364654,-0.806453,HS,Crowthorne,,,ENGLAND
675540,WALWORTH BARBOUR AIS ISRAEL,32.264544,34.876554,HS,Even Yehuda,,,ISRAEL
51782,SAINT MICHAEL HIGH SCHOOL,33.959213,-118.292838,HS,Los Angeles,Los Angeles,CA,USA
694412,CHONGQING FOREIGN LANGUAGE SCH,29.533643,106.481848,HS,Chongqing,,,CHINA
989951,SHERMAN OAKS CENTER FOR ENRICHED ST,34.18417,-118.538292,HS,Reseda,Los Angeles,CA,USA
694590,XIAMEN NO 1 HIGH SCHL FUJIAN,24.458787,118.100472,HS,Xiamen,,,CHINA
990058,PERU,,,NATION,N/A,,,PERU
694358,VERAKIN HIGH SCHOOL CHONGQING,29.542373,106.606938,HS,Chongqing,,,CHINA
694361,ZHENGZHOU FOREIGN LANGUAGE SCH,34.815295,113.563443,HS,Zhengzhou,,,CHINA
694346,AFFILIATED HS SHANXI UNIVRSITY,37.812851,112.582346,HS,Jinzhong,,,CHINA
694362,WUHAN MAPLE LEAF INTRNTL SCHL,30.447791,114.385423,HS,Wuhan,,,CHINA
694342,BEIJING NATIONAL DAY SCHOOL,39.902984,116.256496,HS,Beijing,,,CHINA
50108,HAMILTON HIGH SCHOOL,33.569833,-116.659815,HS,Anza,Riverside,CA,USA
50555,CHINO HIGH SCHOOL,34.021532,-117.685383,HS,Chino,San Bernardino,CA,USA
50559,WALDORF SCHOOL ORANGE CNTY HS,33.658745,-117.939665,HS,Costa Mesa,Orange,CA,USA
50570,CHOWCHILLA UNION HIGH SCHOOL,37.116291,-120.262724,HS,Chowchilla,Madera,CA,USA
718180,AMERICAN COLLEGE OF SOFIA,42.63182,23.36663,HS,Sofia,,,BULGARIA
50582,SAN JUAN HIGH SCHOOL,38.679307,-121.287313,HS,Citrus Heights,Sacramento,CA,USA
759400,AMERICAN SCHOOL OF THE HAGUE,52.146021,4.42317,HS,DEN HAAG,,,NETHERLANDS
50583,WORKMAN HIGH SCHOOL,34.028579,-117.937449,HS,City Of Industry,Los Angeles,CA,USA
696071,TED ANKARA COLG FOUNDATION HS,39.825173,32.778276,HS,Ankara,,,TURKEY
51261,CITY HONORS HIGH SCHOOL,33.963865,-118.356664,HS,Inglewood,Los Angeles,CA,USA
51894,COLIN MCEWEN HIGH SCHOOL,34.036566,-118.686002,HS,Malibu,Los Angeles,CA,USA
561980,ZAMA AMERICAN HIGH SCHOOL DOD,35.4921,139.397182,HS,APO,,,US MILITARY
671087,SYMBIOSIS INTERNATIONAL SCHOOL,18.565423,73.907419,HS,Pune,,,INDIA
820225,WESTERN CANADA HIGH SCHOOL,51.037308,-114.077282,HS,Calgary,,AB,CANADA
783940,AMERICAN SCHOOL OF WARSAW,52.11314,21.115809,HS,WARSAW,,,POLAND
990007,BRUNEI,,,NATION,N/A,,,BRUNEI
694394,TIANJIN TEDA MAPLE LEAF INT,39.025225,117.719034,HS,Tianjin,,,CHINA
694509,NANTONG NO 1 MIDDLE SC JIANGSU,32.016295,120.848706,HS,Nantong,,,CHINA
694339,NO 2 MIDDLE SCHOOL HANGZHOU,30.251311,120.175776,HS,Hangzhou,,,CHINA
51836,WESTVIEW SCHOOL,33.997812,-118.424573,HS,Los Angeles,Los Angeles,CA,USA
694207,SUZHOU SINGAPORE INTL SCHOOL,31.319866,120.757318,HS,Suzhou,,,CHINA
4128,CSU CHANNEL ISLANDS,34.162053,-119.043422,4Y,Camarillo,Ventura,CA,USA
51976,PIEDMONT HILLS HIGH SCHOOL,37.402431,-121.850524,HS,San Jose,Santa Clara,CA,USA
52021,BIG VALLEY CHRISTIAN HS,37.697761,-121.011564,HS,Modesto,Stanislaus,CA,USA
52048,SEASIDE HIGH SCHOOL,36.624715,-121.837884,HS,Seaside,Monterey,CA,USA
52065,MOUNTAIN VIEW ACADEMY,37.393872,-122.084987,HS,Mountain View,Santa Clara,CA,USA
52256,MOUNTAIN VIEW HIGH SCHOOL,37.359605,-122.066855,HS,Ojai,Ventura,CA,USA
52680,CHADWICK SCHOOL,33.776746,-118.361311,HS,Palos Verdes Estate,Los Angeles,CA,USA
52695,BRANSON SCHOOL,37.964526,-122.566571,HS,Ross,Marin,CA,USA
694601,ZIBO EXPERIMENTAL HIGH SCHOOL,36.803449,118.008678,HS,Zibo,,,CHINA
51953,GOLDEN VALLEY HIGH SCHOOL,37.289636,-120.451367,HS,Merced,Merced,CA,USA
694223,21ST CENTURY EXPERIMENTAL SCH,39.930047,116.284265,HS,Beijing,,,CHINA
52000,THOMAS DOWNEY HIGH SCHOOL,37.65717,-120.97514,HS,Modesto,Stanislaus,CA,USA
4671,CSU SACRAMENTO,38.560375,-121.424107,4Y,Sacramento,Sacramento,CA,USA
52131,FOOTHILL HIGH SCHOOL,38.679743,-121.347462,HS,Sacramento,Sacramento,CA,USA
52519,GRANITE HILLS HIGH SCHOOL,36.067488,-118.979817,HS,Porterville,Tulare,CA,USA
52581,FOOTHILL HIGH SCHOOL,40.56907,-122.234659,HS,Palo Cedro,Shasta,CA,USA
52075,MOUNTAIN VIEW HIGH SCHOOL,37.359605,-122.066855,HS,Mountain View,Santa Clara,CA,USA
694221,BEIJING DULWICH INTRNTL SCHOOL,40.079541,116.523807,HS,Beijing,,,CHINA
694222,BEIJING CONCORD COLL SIYO-CAN,39.943434,116.694389,HS,Beijing,,,CHINA
52658,ARLINGTON HIGH SCHOOL,33.913389,-117.427508,HS,Riverside,Riverside,CA,USA
52663,NOTRE DAME HIGH SCHOOL,33.945081,-117.397344,HS,Riverside,Riverside,CA,USA
52748,NOTRE DAME HIGH SCHOOL,36.664344,-121.669126,HS,Salinas,Monterey,CA,USA
50380,BELLARMINE-JEFFERSON HS,34.184206,-118.305574,HS,Burbank,Los Angeles,CA,USA
52853,JAMES MADISON HIGH SCHOOL,39.959058,-105.049291,HS,San Diego,San Diego,CA,USA
694211,UTAHLOY INTERNATIONAL SCHOOL,23.203114,113.341598,HS,Guangzhou,,,CHINA
52426,OPTIONS FOR YOUTH BURBANK,34.181585,-118.328875,HS,Burbank,Los Angeles,CA,USA
52570,MERCY HIGH SCHOOL,40.174082,-122.230359,HS,Red Bluff,Tehama,CA,USA
52714,JESUIT HIGH SCHOOL,38.5849,-121.351826,HS,Carmichael,Sacramento,CA,USA
682002,DAEGU INTERNATIONAL SCHOOL,35.920529,128.644238,HS,Daegu,,,KOREA
682026,SEOUL GLOBAL HIGH SCHOOL,37.591337,126.995978,HS,Seoul,,,KOREA
694334,BEIJING NO. 4 SCHOOL,39.931449,116.379204,HS,Beijing,,,CHINA
694206,CHENGDU INTERNATIONAL SCHOOL,30.53848,104.066372,HS,Chengdu,,,CHINA
694205,DALIAN MAPLE LEAF INTL SCHOOL,39.040124,121.762968,HS,Dalian,,,CHINA
694496,DULWICH COLG INT HS PRG SUZHOU,31.307373,120.772292,HS,Suzhou,,,CHINA
694473,SUZHOU EXPERIMENTAL HIGH SCHL,31.296122,120.552474,HS,Suzhou,,,CHINA
694576,FIRST HIGH SCHOOL OF CHANGSHA,28.201981,112.98839,HS,Changsha,,,CHINA
694538,NANNING NO 2 HIGH SCHOOL,22.811141,108.328542,HS,Nanning,,,CHINA
694246,NATIONAL EXPERIMENTAL HS,24.777184,121.016432,HS,Hsinchu,,,TAIWAN
694452,SHENZHEN EXPERIMENTAL SCHOOL,22.586367,113.943403,HS,Shenzhen,,,CHINA
694233,HANGZHOU #14 MID SCH-ZHEJIANG,30.264142,120.15921,HS,Hangzhou,,,CHINA
694322,SHANGHAI AMERICAN SCH PUDONG,31.20413,121.281681,HS,Shanghai,,,CHINA
694324,SHENZHEN MIDDLE SCHOOL,22.551428,114.121508,HS,Shenzhen,,,CHINA
694579,HANGZHOU SENIOR HIGH SCHOOL,30.265375,120.172539,HS,Hangzhou,,,CHINA
694455,SHANGHAI CAO YANG NO 2 HIGH SC,31.239073,121.400701,HS,Shanghai,,,CHINA
694375,SECOND HS-BEIJING NORMAL UNIV,39.959975,116.371818,HS,Beijing,,,CHINA
694574,BEIJING NEW TALENT ACADEMY,40.0851,116.520098,HS,Beijing,,,CHINA
694372,TAIPEI FUHSING PRIVATE SCHOOL,25.039433,121.548402,HS,Taipei,,,TAIWAN
694448,ZHENGZHOU MIDDLE SCHOOL,34.799952,113.57265,HS,Zhengzhou,,,CHINA
694499,ZHEJIANG HUZHOU HIGH SCHOOL,30.853437,120.102186,HS,Huzhou,,,CHINA
694446,SHANDONG EXPERIMENTAL HIGH SCH,36.657601,117.005472,HS,Jinan,,,CHINA
694442,HAINAN OVERSEAS CHINESE MID SC,20.017244,110.324642,HS,Haikou,,,CHINA
694441,SHAOXING NO 1 HIGH SCHL BRANCH,30.007545,120.553399,HS,Shaoxing,,,CHINA
694547,BEIJING CHANGPING NEW ORIENTAL,40.144342,116.233745,HS,Beijing,,,CHINA
694312,NORTHEAST YUCAI SCHOOL,41.70902,123.436939,HS,Shenyang,,,CHINA
694311,CHANGZHOU NO 1 HIGH SCHOOL,31.77048,119.964368,HS,Changzhou,,,CHINA
694313,SHENZHEN YAOHUA EXPERIMNT SCHL,22.586367,113.943403,HS,Shenzhen,,,CHINA
694316,NANJING JINLING HS HEXI CAMPUS,32.048199,118.781908,HS,Nanjing,,,CHINA
694535,WUHAN NO 6 HIGH SCHOOL,30.602756,114.291832,HS,Wuhan,,,CHINA
694451,DALIAN NO 24 HIGH SCHOOL,38.909704,121.639071,HS,Dalian,,,CHINA
694549,TEDA INTERNATIONAL SCHOOL,39.027743,117.686509,HS,Tianjin,,,CHINA
50489,N MONTEREY CO CTR INDPNDNT STU,36.775984,-121.669342,HS,Castroville,Monterey,CA,USA
50499,REDWOOD CHRISTIAN JR-SR HS,37.705611,-122.073512,HS,Castro Valley,Alameda,CA,USA
50520,CENTRAL VALLEY HIGH SCHOOL,40.677441,-122.373366,HS,Shasta Lake,Shasta,CA,USA
50525,CERES HIGH SCHOOL,37.595244,-120.956664,HS,Ceres,Stanislaus,CA,USA
50526,GRETCHEN WHITNEY HIGH SCHOOL,33.8781,-118.054286,HS,Cerritos,Los Angeles,CA,USA
50579,EASTLAKE HIGH SCHOOL,32.640286,-116.967599,HS,Chula Vista,San Diego,CA,USA
50581,HILLTOP HIGH SCHOOL,32.636077,-117.059043,HS,Chula Vista,San Diego,CA,USA
682029,CHEONGSHIM INTERNATIONAL ACAD,37.68703,127.540717,HS,Gapyeong,,,KOREA
685300,INTERNATIONAL COLLEGE BEIRUT,33.926272,35.642201,HS,Ain Aar,,,LEBANON
470,NATIONAL UNIVERSITY,32.829481,-117.127251,4Y,La Jolla,San Diego,CA,USA
4082,CAL POLY POMONA,34.057565,-117.820741,4Y,Pomona,Los Angeles,CA,USA
619187,AGA KHAN ACADEMY MOMBASA,-4.077389,39.669555,HS,Mombasa,,,KENYA
653069,YANGON INTERNATIONAL SCHOOL,16.826463,96.192467,HS,Yangon,,,MYANMAR
4098,CSU DOMINGUEZ HILLS,33.863371,-118.255281,4Y,Carson,Los Angeles,CA,USA
694584,BEIJING NO 8 HIGH SCHOOL,39.900833,116.354103,HS,Beijing,,,CHINA
4341,HARVEY MUDD COLLEGE,34.106082,-117.71047,4Y,Claremont,Los Angeles,CA,USA
4389,CSU LONG BEACH,33.783824,-118.11409,4Y,Long Beach,Los Angeles,CA,USA
52608,CITY OF ANGELS SCHOOL,34.033923,-118.186122,HS,Los Angeles,Los Angeles,CA,USA
654350,NASEEM INTERNATIONAL SCHOOL,26.152951,50.541057,HS,Isa Town,,,BAHRAIN
4399,CSU LOS ANGELES,34.244574,-118.532582,4Y,Los Angeles,Los Angeles,CA,USA
52022,EAST PALO ALTO ACADEMY,37.462949,-122.13215,HS,East Palo Alto,San Mateo,CA,USA
4457,FASHION INST DSGN MERCH LOS A,34.044193,-118.260017,4Y,Los Angeles,Los Angeles,CA,USA
52429,OPTIONS FOR YOUTH VICTOR VALLY,34.471086,-117.33717,HS,Victorville,San Bernardino,CA,USA
52478,EL DORADO HIGH SCHOOL,33.891946,-117.856297,HS,Placentia,Orange,CA,USA
52485,EL DORADO HIGH SCHOOL,38.732624,-120.81216,HS,Placerville,El Dorado,CA,USA
52561,LUTHERAN HIGH SCHOOL,38.420605,-121.418653,HS,Elk Grove,Sacramento,CA,USA
52836,CHRISTIAN HIGH SCHOOL,32.80093,-116.903014,HS,El Cajon,San Diego,CA,USA
685489,COLLEGE NOTRE-DAME DE JAMHOUR,33.832661,35.565311,HS,Jamhour,,,LEBANON
4520,MOUNT ST MARYS COLL DOHENY,34.085238,-118.482382,4Y,Los Angeles,Los Angeles,CA,USA
685486,BRUMMANA HIGH SCHOOL,33.880939,35.624345,HS,Broummana,,,LEBANON
694552,WELLINGTON COLLEGE INT TIANJIN,39.149118,117.174527,HS,Tianjin,,,CHINA
4493,MOUNT ST MARYS COLL DOHENY,34.085238,-118.482382,4Y,Los Angeles,Los Angeles,CA,USA
4515,MARYMOUNT CALIFORNIA UNIVERSITY,33.735091,-118.333884,4Y,Rancho Palos Verdes,Los Angeles,CA,USA
4581,OCCIDENTAL COLLEGE,34.127362,-118.210504,4Y,Los Angeles,Los Angeles,CA,USA
694550,TIANJIN INTERNATIONAL SCHOOL,39.055975,117.272405,HS,Tianjin,,,CHINA
52850,HERBERT HOOVER HIGH SCHOOL,36.8411,-119.801015,HS,San Diego,San Diego,CA,USA
695360,UNITED NATIONS INTL SCH HANOI,21.074305,105.807779,HS,Hanoi,,,VIETNAM
52815,LINCOLN HIGH SCHOOL,32.703991,-117.092025,HS,San Diego,San Diego,CA,USA
4589,CSU FULLERTON,33.882923,-117.886926,4Y,Fullerton,Orange,CA,USA
4596,AZUSA PACIFIC UNIVERSITY,34.130076,-117.888359,4Y,Azusa,Los Angeles,CA,USA
4607,POMONA COLLEGE,34.097743,-117.711803,4Y,Claremont,Los Angeles,CA,USA
738200,ATHENS COLLEGE PSYCHICO COLL,38.018745,23.780819,HS,ATHENS,,,GREECE
694293,AFFILIATED HS S CHINA NORMAL,31.200426,121.591542,HS,Guangzhou,,,CHINA
4619,PITZER COLLEGE,34.104662,-117.704719,4Y,Claremont,Los Angeles,CA,USA
52379,PACIFICA HIGH SCHOOL,34.217785,-119.17034,HS,Oxnard,Ventura,CA,USA
52468,MILLENNIUM HIGH SCHOOL,37.82281,-122.233732,HS,Piedmont,Alameda,CA,USA
792450,AMERICAN SCHOOL OF MADRID,40.442783,3.782091,HS,MADRID,,,SPAIN
794505,VIKTOR RYDBERG GYMNASIUM,59.343439,18.064693,HS,STOCKHOLM,,,SWEDEN
734850,SCHULE SCHLOSS SALEM,47.776818,9.277509,HS,Salem,,,GERMANY
4630,PEPPERDINE UNIVERSITY,34.041405,-118.709581,4Y,Malibu,Los Angeles,CA,USA
470053,THOMAS JEFFERSON H S,38.818662,-77.168763,HS,Alexandria,,VA,USA
52694,GLEN A WILSON HIGH SCHOOL,33.997875,-117.94648,HS,Hacienda Heights,Los Angeles,CA,USA
694611,SSIS WESTERN ACADEMY,31.319866,120.757318,HS,Suzhou,,,CHINA
4707,CSU NORTHRIDGE,34.242595,-118.528069,4Y,Northridge,Los Angeles,CA,USA
4723,SONOMA STATE UNIVERSITY,38.339387,-122.674181,4Y,Rohnert Park,Sonoma,CA,USA
4833,UC BERKELEY,37.871899,-122.25854,4Y,Berkeley,Alameda,CA,USA
4834,UC DAVIS,38.538232,-121.761712,4Y,Davis,Yolo,CA,USA
4837,UC LOS ANGELES (UCLA),34.068921,-118.445181,4Y,Los Angeles,Los Angeles,CA,USA
4852,UNIV SOUTHERN CALIFORNIA,34.022352,-118.285117,4Y,Los Angeles,Los Angeles,CA,USA
4859,UC IRVINE,33.640495,-117.844296,4Y,Irvine,Orange,CA,USA
4876,AMERICAN JEWISH UNIV,34.126388,-118.472528,4Y,Los Angeles,Los Angeles,CA,USA
4952,WHITTIER COLLEGE,33.978793,-118.032284,4Y,Whittier,Los Angeles,CA,USA
4086,COASTLINE COMMUNITY COLLEGE,33.7155999,-117.9292384,CC,Fountain Valley,Orange,CA,USA
933,COASTLINE COMMUNITY COLLEGE,33.7155999,-117.9292384,CC,Fountain Valley,Orange,CA,USA
4005,ANTELOPE VALLEY COLLEGE,34.6769819,-118.1862581,CC,Lancaster,Los Angeles,CA,USA
4020,BARSTOW COLLEGE,34.8711719,-117.0249736,CC,Barstow,San Bernardino,CA,USA
4051,CITRUS COLLEGE,34.1355529,-117.8851117,CC,Glendora,Los Angeles,CA,USA
20035,AUSTIN E LATHROP HIGH SCHOOL,64.836168,-147.732756,HS,Fairbanks,,AK,USA
30307,MOUNTAIN POINTE HIGH SCHOOL,33.32595,-111.99064,HS,Phoenix,,AZ,USA
30310,SOUTH MOUNTAIN HIGH SCHOOL,33.396831,-112.062226,HS,Phoenix,,AZ,USA
30444,TEMPE PREPARATORY ACADEMY,33.392373,-111.918719,HS,Tempe,,AZ,USA
30479,DESERT VIEW HIGH SCHOOL,32.135965,-110.904246,HS,Tucson,,AZ,USA
30551,ACCELERATED ELEMENTARY/SEC SCH,32.302847,-111.065083,HS,Tucson,,AZ,USA
41444,PULASKI ACADEMY,34.77189,-92.412238,HS,Little Rock,,AR,USA
42375,SUBIACO ACADEMY,35.298771,-93.634369,HS,Subiaco,,AR,USA
50020,SAINT JOSEPH-NOTRE DAME HS,37.765541,-122.255374,HS,Alameda,Alameda,CA,USA
50050,ALHAMBRA HIGH SCHOOL,34.092974,-118.128423,HS,Alhambra,Los Angeles,CA,USA
50055,MARK KEPPEL HIGH SCHOOL,34.070281,-118.115856,HS,Alhambra,Los Angeles,CA,USA
50060,RAMONA CONVENT SECONDARY SCH,34.07309,-118.139939,HS,Alhambra,Los Angeles,CA,USA
50075,SOUTH TAHOE HIGH SCHOOL,38.909964,-120.015301,HS,South Lake Tahoe,El Dorado,CA,USA
50082,CORNELIA CONNELLY SCHOOL,33.829853,-117.964211,HS,Anaheim,Orange,CA,USA
50086,EASTSIDE CHRISTIAN HIGH SCHOOL,33.866947,-117.958178,HS,Fullerton,Orange,CA,USA
50087,SAVANNA HIGH SCHOOL,33.834488,-117.971028,HS,Anaheim,Orange,CA,USA
50088,SERVITE HIGH SCHOOL,33.846716,-117.949448,HS,Anaheim,Orange,CA,USA
50090,ANAHEIM HIGH SCHOOL,33.833736,-117.924147,HS,Anaheim,Orange,CA,USA
50092,WESTERN HIGH SCHOOL,33.826212,-118.004702,HS,Anaheim,Orange,CA,USA
50095,ANDERSON UNION HIGH SCHOOL,40.44431,-122.305674,HS,Anderson,Shasta,CA,USA
50109,DEER VALLEY HIGH SCHOOL,37.963683,-121.775139,HS,Antioch,Contra Costa,CA,USA
50115,ANTIOCH HIGH SCHOOL,38.005316,-121.815771,HS,Antioch,Contra Costa,CA,USA
50126,ACAD FOR ACADEMIC EXCELLENCE,34.532784,-117.278587,HS,Apple Valley,San Bernardino,CA,USA
50130,ARCADIA HIGH SCHOOL,34.130381,-118.037859,HS,Arcadia,Los Angeles,CA,USA
670732,SOUTH ISLAND SCHOOL,22.254346,114.18292,HS,Hong Kong,,,HONG KONG
734660,MUNICH INTERNATIONAL SCHOOL,48.002223,11.381544,HS,Munich,,,GERMANY
51938,MARINA HIGH SCHOOL,36.675548,-121.801871,HS,Marina,Monterey,CA,USA
30573,YUMA CATHOLIC HIGH SCHOOL,32.676671,-114.644844,HS,Yuma,,AZ,USA
50131,ABC CHRISTIAN SCHOOL,34.117409,-118.029518,HS,Arcadia,Los Angeles,CA,USA
50132,FOOTHILL PREPARATORY SCHOOL,34.08988,-118.135265,HS,Alhambra,Los Angeles,CA,USA
50134,GRANITE HILLS HIGH SCHOOL,34.509016,-117.166455,HS,Apple Valley,San Bernardino,CA,USA
50135,ARCATA HIGH SCHOOL,40.876169,-124.088828,HS,Arcata,Humboldt,CA,USA
50157,VALLEY CHRISTIAN HIGH SCHOOL,33.871979,-118.102856,HS,Cerritos,Los Angeles,CA,USA
50170,MENLO ATHERTON HIGH SCHOOL,37.460767,-122.175114,HS,Atherton,San Mateo,CA,USA
50173,FOREST LAKE CHRISTIAN SCHOOL,39.021546,-121.062211,HS,Auburn,Placer,CA,USA
50175,PLACER HIGH SCHOOL,38.895177,-121.072446,HS,Auburn,Placer,CA,USA
50181,BUHACH COLONY HIGH SCHOOL,37.34842,-120.575897,HS,Atwater,Merced,CA,USA
50190,GLADSTONE HIGH SCHOOL,34.104878,-117.91368,HS,Covina,Los Angeles,CA,USA
50196,LIBERTY HIGH SCHOOL,35.36623,-119.128796,HS,Bakersfield,Kern,CA,USA
50202,RIDGEVIEW HIGH SCHOOL,35.277508,-119.058552,HS,Bakersfield,Kern,CA,USA
50209,CENTENNIAL HIGH SCHOOL,35.398269,-119.097976,HS,Bakersfield,Kern,CA,USA
50210,EAST BAKERSFIELD HIGH SCHOOL,35.380534,-118.965329,HS,Bakersfield,Kern,CA,USA
50213,FOOTHILL HIGH SCHOOL,35.364542,-118.917526,HS,Bakersfield,Kern,CA,USA
50217,STOCKDALE HIGH SCHOOL,35.326584,-119.126419,HS,Bakersfield,Kern,CA,USA
50220,NORTH HIGH SCHOOL,35.429744,-119.027353,HS,Bakersfield,Kern,CA,USA
50223,SOUTH HIGH SCHOOL,35.324424,-119.01366,HS,Bakersfield,Kern,CA,USA
50224,WEST HIGH SCHOOL,35.343331,-119.060166,HS,Bakersfield,Kern,CA,USA
50225,BALDWIN PARK HIGH SCHOOL,34.084807,-117.948328,HS,Baldwin Park,Los Angeles,CA,USA
50240,BEAUMONT HIGH SCHOOL,33.96427,-116.980474,HS,Beaumont,Riverside,CA,USA
50245,BELL HIGH SCHOOL,33.972438,-118.190495,HS,Bell,Los Angeles,CA,USA
50259,GOLDEN VALLEY HIGH SCHOOL,35.28011,-119.010676,HS,Bakersfield,Kern,CA,USA
50260,SAINT JOHN BOSCO HIGH SCHOOL,33.906995,-118.124292,HS,Bellflower,Los Angeles,CA,USA
50275,NOTRE DAME HIGH SCHOOL,37.515524,-122.287286,HS,Belmont,San Mateo,CA,USA
50280,BENICIA HIGH SCHOOL,38.064832,-122.175659,HS,Benicia,Solano,CA,USA
50290,BERKELEY HIGH SCHOOL,37.868012,-122.271769,HS,Berkeley,Alameda,CA,USA
50310,SAINT MARYS COLLEGE HS,37.882909,-122.283589,HS,Berkeley,Alameda,CA,USA
50320,BEVERLY HILLS HIGH SCHOOL,34.061464,-118.410425,HS,Beverly Hills,Los Angeles,CA,USA
50334,DESERT HOT SPRINGS HS,33.963927,-116.516747,HS,Desert Hot Sprin,Riverside,CA,USA
50355,ANDERSON VALLEY JR SR HS,39.011955,-123.375,HS,Boonville,Mendocino,CA,USA
50379,JOHN F KENNEDY HIGH SCHOOL,33.841441,-118.038654,HS,La Palma,Orange,CA,USA
50385,BURBANK SENIOR HIGH SCHOOL,34.187289,-118.314266,HS,Burbank,Los Angeles,CA,USA
50386,HERITAGE HIGH SCHOOL,37.921756,-121.755161,HS,Brentwood,Contra Costa,CA,USA
50400,JOHN BURROUGHS HIGH SCHOOL,34.169914,-118.327835,HS,Burbank,Los Angeles,CA,USA
50404,EARLY COLLEGE HIGH SCHOOL,33.680624,-117.927832,HS,Costa Mesa,Orange,CA,USA
50415,MERCY HIGH SCHOOL,37.582864,-122.383141,HS,Burlingame,San Mateo,CA,USA
50449,PACIFIC RIDGE SCHOOL,33.122873,-117.249918,HS,Carlsbad,San Diego,CA,USA
50463,WEST VALLEY CHRISTIAN SCHOOL,34.200292,-118.616374,HS,West Hills,Los Angeles,CA,USA
50467,FAITH BAPTIST SCHOOLS,34.209504,-118.609355,HS,Canoga Park,Los Angeles,CA,USA
50500,CASTRO VALLEY HIGH SCHOOL,37.70431,-122.076554,HS,Castro Valley,Alameda,CA,USA
50508,CATHEDRAL CITY HIGH SCHOOL,33.803967,-116.450631,HS,Cathedral City,Riverside,CA,USA
50512,NEW MILLENNIUM SECONDARY SCHL,33.866724,-118.297471,HS,Carson,Los Angeles,CA,USA
50528,CHATSWORTH HIGH SCHOOL,34.253388,-118.586363,HS,Chatsworth,Los Angeles,CA,USA
50534,STONERIDGE PREP SCHOOL,34.271142,-118.830548,HS,Simi Valley,Ventura,CA,USA
50535,CHESTER HIGH SCHOOL,40.302553,-121.231095,HS,Chester,Plumas,CA,USA
51825,UNIVERSITY HIGH SCHOOL,34.045413,-118.461137,HS,Los Angeles,Los Angeles,CA,USA
51984,UNIVERSITY HIGH SCHOOL,33.651304,-117.822602,HS,Irvine,Orange,CA,USA
694445,BEIJING NO 2 MIDDLE SCHOOL,39.912292,116.697848,HS,Beijing,,,CHINA
4027,CERRO COSO COMMUNITY COLLEGE,35.5674569,-117.667777,CC,Ridgecrest,Kern,CA,USA
50573,CASTLE PARK HIGH SCHOOL,32.606729,-117.050443,HS,Chula Vista,San Diego,CA,USA
50587,MESA VERDE HIGH SCHOOL,38.702001,-121.297683,HS,Citrus Heights,Sacramento,CA,USA
50590,CLAREMONT HIGH SCHOOL,34.112631,-117.721943,HS,Claremont,Los Angeles,CA,USA
50599,WEBB SCHOOL OF CALIFORNIA,34.121754,-117.738602,HS,Claremont,Los Angeles,CA,USA
50602,OTAY RANCH HIGH SCHOOL,32.621377,-116.989401,HS,Chula Vista,San Diego,CA,USA
50618,FLOYD B BUCHANAN HIGH SCHOOL,36.858273,-119.712261,HS,Clovis,Fresno,CA,USA
50622,CLOVIS EAST HIGH SCHOOL,36.798065,-119.642528,HS,Clovis,Fresno,CA,USA
50640,COLTON HIGH SCHOOL,34.070074,-117.33447,HS,Colton,San Bernardino,CA,USA
50650,CENTENNIAL HIGH SCHOOL,33.914582,-118.251879,HS,Compton,Los Angeles,CA,USA
50652,DOMINGUEZ SENIOR HIGH SCHOOL,33.892444,-118.181766,HS,Compton,Los Angeles,CA,USA
50655,QUEEN OF ANGELS ACADEMY,33.895343,-118.260121,HS,Compton,Los Angeles,CA,USA
50659,COLLEGE PARK HIGH SCHOOL,37.96476,-122.071671,HS,Pleasant Hill,Contra Costa,CA,USA
50660,MOUNT DIABLO HIGH SCHOOL,37.982683,-122.036806,HS,Concord,Contra Costa,CA,USA
50665,CORCORAN HIGH SCHOOL,36.097743,-119.568447,HS,Corcoran,Kings,CA,USA
50666,NORTHGATE HIGH SCHOOL,37.90822,-122.008798,HS,Walnut Creek,Contra Costa,CA,USA
50676,CENTENNIAL HIGH SCHOOL,33.858166,-117.545482,HS,Corona,Riverside,CA,USA
50684,ESTANCIA HIGH SCHOOL,33.658827,-117.933843,HS,Costa Mesa,Orange,CA,USA
50697,ELIZABETH LEARNING CENTER,33.963178,-118.182907,HS,Cudahy,Los Angeles,CA,USA
50700,COVINA HIGH SCHOOL,34.080957,-117.901129,HS,Covina,Los Angeles,CA,USA
50703,NORTHVIEW HIGH SCHOOL,34.094733,-117.910478,HS,Covina,Los Angeles,CA,USA
50704,SOUTH HILLS HIGH SCHOOL,34.063096,-117.882697,HS,West Covina,Los Angeles,CA,USA
50711,SILVER VALLEY HIGH SCHOOL,34.897141,-116.888116,HS,Yermo,San Bernardino,CA,USA
50714,CYPRESS HIGH SCHOOL,33.820078,-118.028928,HS,Cypress,Orange,CA,USA
50718,CUPERTINO HIGH SCHOOL,37.320229,-122.010237,HS,Cupertino,Santa Clara,CA,USA
50720,JEFFERSON HIGH SCHOOL,37.695848,-122.466096,HS,Daly City,San Mateo,CA,USA
50721,TERRA NOVA HIGH SCHOOL,37.594642,-122.476137,HS,Pacifica,San Mateo,CA,USA
50722,GAHR HIGH SCHOOL,33.873558,-118.0943,HS,Cerritos,Los Angeles,CA,USA
50723,WESTMOOR HIGH SCHOOL,37.684056,-122.483342,HS,Daly City,San Mateo,CA,USA
50727,MONTE VISTA HIGH SCHOOL,37.843845,-121.981749,HS,Danville,Contra Costa,CA,USA
50730,DAVIS SENIOR HIGH SCHOOL,38.556413,-121.750531,HS,Davis,Yolo,CA,USA
50735,DELANO HIGH SCHOOL,35.776463,-119.240523,HS,Delano,Kern,CA,USA
50743,DAVIS SCHOOL INDEPENDENT STUDY,38.547379,-121.74512,HS,Davis,Yolo,CA,USA
50744,ORANGE COAST MIDDLE COLLEGE HS,33.670706,-117.90923,HS,Costa Mesa,Orange,CA,USA
50748,DIAMOND BAR HIGH SCHOOL,33.982476,-117.839089,HS,Diamond Bar,Los Angeles,CA,USA
50750,DINUBA HIGH SCHOOL,36.541105,-119.385667,HS,Dinuba,Tulare,CA,USA
50755,DIXON HIGH SCHOOL,38.436571,-121.815996,HS,Dixon,Solano,CA,USA
50765,DOS PALOS HIGH SCHOOL,36.984902,-120.623675,HS,Dos Palos,Merced,CA,USA
50770,DOWNEY HIGH SCHOOL,33.938936,-118.128729,HS,Downey,Los Angeles,CA,USA
50771,WARREN HIGH SCHOOL,33.936019,-118.140186,HS,Downey,Los Angeles,CA,USA
52672,RUBIDOUX HIGH SCHOOL,33.999064,-117.426842,HS,Jurupa Valley,Riverside,CA,USA
52375,FLINTRIDGE PREPARATORY SCHOOL,34.198743,-118.184043,HS,La Canada,Los Angeles,CA,USA
52380,FLINTRIDGE SACRED HEART ACAD,34.180353,-118.183286,HS,La Canada,Los Angeles,CA,USA
694462,YEW CHUNG INT SCHL-SHANGHAI CP,31.214714,121.567758,HS,Shanghai,,,CHINA
694457,CHENGDU NO 7 HIGH SCHOOL,30.635295,104.075241,HS,Chengdu,,,CHINA
4848,UNIVERSITY OF REDLANDS,34.06304,-117.163243,4Y,Redlands,San Bernardino,CA,USA
4850,UNIV SAN FRANCISCO,37.721897,-122.478209,4Y,San Francisco,San Francisco,CA,USA
50683,COSTA MESA HIGH SCHOOL,33.670422,-117.905127,HS,Costa Mesa,Orange,CA,USA
50776,OXFORD ACADEMY,33.823547,-118.042348,HS,Cypress,Orange,CA,USA
50783,DUARTE HIGH SCHOOL,34.137239,-117.971314,HS,Duarte,Los Angeles,CA,USA
50784,DUBLIN HIGH SCHOOL,37.720361,-121.924105,HS,Dublin,Alameda,CA,USA
50785,DUNSMUIR HIGH SCHOOL,41.210211,-122.276451,HS,Dunsmuir,Siskiyou,CA,USA
50787,VALLEY CHRISTIAN HIGH SCHOOL,37.702234,-121.953729,HS,Dublin,Alameda,CA,USA
50791,EASTSIDE COLLEGE PREP SCHOOL,37.463584,-122.132157,HS,East Palo Alto,San Mateo,CA,USA
50805,EL CAJON VALLEY HIGH SCHOOL,32.799206,-116.947591,HS,El Cajon,San Diego,CA,USA
50806,GRANITE HILLS HIGH SCHOOL,32.798345,-116.914447,HS,El Cajon,San Diego,CA,USA
50810,CENTRAL UNION HIGH SCHOOL,32.788721,-115.563777,HS,El Centro,Imperial,CA,USA
50815,EL CERRITO HIGH SCHOOL,37.906591,-122.294026,HS,El Cerrito,Contra Costa,CA,USA
50816,SOUTHWEST HIGH SCHOOL,32.775909,-115.580453,HS,El Centro,Imperial,CA,USA
50818,OAK RIDGE HIGH SCHOOL,38.680658,-121.070865,HS,El Dorado Hills,El Dorado,CA,USA
50819,UNION MINE HIGH SCHOOL,38.676662,-120.838753,HS,El Dorado,El Dorado,CA,USA
50824,FRANKLIN HIGH SCHOOL,38.392849,-121.430181,HS,Elk Grove,Sacramento,CA,USA
50825,ELK GROVE HIGH SCHOOL,38.401014,-121.372604,HS,Elk Grove,Sacramento,CA,USA
50828,GROSSMONT MIDDLE COLLEGE HS,32.816582,-117.00628,HS,El Cajon,San Diego,CA,USA
50835,EL MONTE HIGH SCHOOL,34.064213,-118.034435,HS,El Monte,Los Angeles,CA,USA
50837,MOUNTAIN VIEW HIGH SCHOOL,34.05399,-118.011564,HS,El Monte,Los Angeles,CA,USA
50845,EL SEGUNDO HIGH SCHOOL,33.924866,-118.415381,HS,El Segundo,Los Angeles,CA,USA
50858,LA COSTA CANYON HIGH SCHOOL,33.073267,-117.230348,HS,Carlsbad,San Diego,CA,USA
50860,EMERY SECONDARY SCHOOL,37.842984,-122.288143,HS,Emeryville,Alameda,CA,USA
50862,GRAUER SCHOOL,33.028577,-117.256221,HS,Encinitas,San Diego,CA,USA
50865,SAN DIEGUITO ACADEMY,33.037144,-117.274997,HS,Encinitas,San Diego,CA,USA
50867,CRESPI CARMELITE HIGH SCHOOL,34.161556,-118.521793,HS,Encino,Los Angeles,CA,USA
50869,HOLY MARTYRS ARMENIAN HS,34.167848,-118.518053,HS,Encino,Los Angeles,CA,USA
50870,ESCALON HIGH SCHOOL,37.798894,-120.994714,HS,Escalon,San Joaquin,CA,USA
50873,ORANGE GLEN HIGH SCHOOL,33.128894,-117.040602,HS,Escondido,San Diego,CA,USA
50879,ESCONDIDO ADVENTIST ACADEMY,33.139435,-117.105902,HS,Escondido,San Diego,CA,USA
50880,ESCONDIDO HIGH SCHOOL,33.144327,-117.090959,HS,Escondido,San Diego,CA,USA
50884,SAN PASQUAL HIGH SCHOOL,33.076253,-117.057121,HS,Escondido,San Diego,CA,USA
51974,EL TORO HIGH SCHOOL,33.637302,-117.687483,HS,Lake Forest,Orange,CA,USA
50155,ARTESIA HIGH SCHOOL,33.84361,-118.074956,HS,Lakewood,Los Angeles,CA,USA
50238,BASSETT HIGH SCHOOL,34.052007,-117.977343,HS,La Puente,Los Angeles,CA,USA
50885,ESPARTO HIGH SCHOOL,38.691949,-122.016393,HS,Esparto,Yolo,CA,USA
50888,OPTIONS FOR YOUTH VICTOR VALLY,34.471086,-117.33717,HS,Etiwanda,San Bernardino,CA,USA
50890,ETNA UNION HIGH SCHOOL,41.456807,-122.894755,HS,Etna,Siskiyou,CA,USA
50896,EL SOBRANTE CHRISTIAN HIGH SCH,37.976944,-122.295226,HS,El Sobrante,Contra Costa,CA,USA
50897,SUMMIT HIGH SCHOOL,34.14833,-117.463714,HS,Fontana,San Bernardino,CA,USA
50898,ST BERNARDS CATHOLIC HS,40.783606,-124.168,HS,Eureka,Humboldt,CA,USA
50899,LIFELINE EDUCATION CHARTER SCH,33.894724,-118.216268,HS,Compton,Los Angeles,CA,USA
50900,EUREKA SENIOR HIGH SCHOOL,40.790379,-124.158875,HS,Eureka,Humboldt,CA,USA
50902,CARSON CREEK HIGH SCHOOL,38.428891,-121.427627,HS,Elk Grove,Sacramento,CA,USA
50903,QUARRY LANE SCHOOL,37.672369,-121.865324,HS,Pleasanton,Alameda,CA,USA
50905,EXETER UNION HIGH SCHOOL,36.298348,-119.135771,HS,Exeter,Tulare,CA,USA
50910,ARMIJO HIGH SCHOOL,38.250993,-122.037594,HS,Fairfield,Solano,CA,USA
50911,FAIRFIELD HIGH SCHOOL,38.274681,-122.031094,HS,Fairfield,Solano,CA,USA
50915,DEL CAMPO HIGH SCHOOL,38.655137,-121.308597,HS,Fair Oaks,Sacramento,CA,USA
50920,SACRAMENTO WALDORF SCHOOL,38.631964,-121.287246,HS,Fair Oaks,Sacramento,CA,USA
50924,FARMERSVILLE HIGH SCHOOL,36.310602,-119.200838,HS,Farmersville,Tulare,CA,USA
50925,FALLBROOK UNION HIGH SCHOOL,33.351793,-117.236153,HS,Fallbrook,San Diego,CA,USA
50927,SAN LORENZO VALLEY HIGH SCHOOL,37.0611,-122.081215,HS,Felton,Santa Cruz,CA,USA
50930,FERNDALE HIGH SCHOOL,40.584887,-124.260002,HS,Ferndale,Humboldt,CA,USA
50935,FILLMORE HIGH SCHOOL,34.403275,-118.916187,HS,Fillmore,Ventura,CA,USA
50936,UNIVERSITY HIGH SCHOOL,36.810279,-119.744282,HS,Fresno,Fresno,CA,USA
50937,FIREBAUGH HIGH SCHOOL,36.845657,-120.446565,HS,Firebaugh,Fresno,CA,USA
51335,LA JOLLA HIGH,32.833435,-117.272758,HS,La Jolla,San Diego,CA,USA
50068,ARLETA HIGH SCHOOL,34.250727,-118.44245,HS,Arleta,Los Angeles,CA,USA
50940,FOLSOM HIGH SCHOOL,38.648544,-121.156116,HS,Folsom,Sacramento,CA,USA
50942,HENRY J KAISER HIGH SCHOOL,34.050631,-117.492522,HS,Fontana,San Bernardino,CA,USA
50945,FONTANA HIGH SCHOOL,34.081267,-117.453311,HS,Fontana,San Bernardino,CA,USA
50947,EL MOLINO HIGH SCHOOL,38.481329,-122.889562,HS,Forestville,Sonoma,CA,USA
50955,FORT BRAGG HIGH SCHOOL,39.437561,-123.786917,HS,Fort Bragg,Mendocino,CA,USA
50963,LOS AMIGOS HIGH SCHOOL,33.722064,-117.926296,HS,Fountain Valley,Orange,CA,USA
50964,FOUNTAIN VALLEY HIGH SCHOOL,33.70439,-117.962191,HS,Fountain Valley,Orange,CA,USA
50965,FORTUNA UNION HIGH SCHOOL,40.59525,-124.153404,HS,Fortuna,Humboldt,CA,USA
50966,JOHN F KENNEDY HIGH SCHOOL,37.528658,-121.986646,HS,Fremont,Alameda,CA,USA
50967,FOWLER HIGH SCHOOL,36.633119,-119.672723,HS,Fowler,Fresno,CA,USA
50968,IRVINGTON HIGH SCHOOL,37.523864,-121.96699,HS,Fremont,Alameda,CA,USA
50970,MISSION SAN JOSE HIGH SCHOOL,37.544298,-121.933798,HS,Fremont,Alameda,CA,USA
694435,WASHINGTON HIGH SCHOOL,37.55282,-121.994828,HS,Taichung,,,TAIWAN
50972,WASHINGTON HIGH SCHOOL,37.55282,-121.994828,HS,Taichung,Alameda,CA,USA
50973,BULLARD HIGH SCHOOL,36.817694,-119.810719,HS,Fresno,Fresno,CA,USA
50975,CENTRAL HIGH SCHOOL EAST/WEST,36.786968,-119.881115,HS,Fresno,Fresno,CA,USA
50977,MCLANE HIGH SCHOOL,36.775034,-119.755283,HS,Fresno,Fresno,CA,USA
50978,FREMONT CHRISTIAN HIGH SCHOOL,37.550625,-122.018709,HS,Fremont,Alameda,CA,USA
50980,EDISON HIGH SCHOOL,36.719865,-119.805839,HS,Fresno,Fresno,CA,USA
50989,HERBERT HOOVER HIGH SCHOOL,36.817361,-119.771586,HS,Fresno,Fresno,CA,USA
510240,LARAMIE SENIOR HIGH SCHOOL,41.195479,-105.84162,HS,Laramie,,WY,USA
50994,FRESNO CHRISTIAN HIGH SCHOOL,36.842023,-119.753869,HS,Fresno,Fresno,CA,USA
50995,THEODORE ROOSEVELT HIGH SCHOOL,36.741442,-119.752339,HS,Fresno,Fresno,CA,USA
50997,DUNCAN POLYTECHNICAL HS,36.784318,-119.751584,HS,Fresno,Fresno,CA,USA
51007,ROSARY ACADEMY,33.884721,-117.897886,HS,Fullerton,Orange,CA,USA
51008,SUNNY HILLS HIGH SCHOOL,33.884165,-117.95348,HS,Fullerton,Orange,CA,USA
51009,TROY HIGH SCHOOL,33.880455,-117.893461,HS,Fullerton,Orange,CA,USA
51015,GALT HIGH SCHOOL,38.25587,-121.300015,HS,Galt,Sacramento,CA,USA
51020,GARDENA HIGH SCHOOL,33.868435,-118.296141,HS,Gardena,Los Angeles,CA,USA
51025,JUNIPERO SERRA HIGH SCHOOL,33.896475,-118.316628,HS,Gardena,Los Angeles,CA,USA
51030,GARDEN GROVE HIGH SCHOOL,33.77834,-117.935426,HS,Garden Grove,Orange,CA,USA
51031,ORANGEWOOD ADVENTIST ACADEMY,33.764001,-117.91103,HS,Garden Grove,Orange,CA,USA
51032,RANCHO ALAMITOS HIGH SCHOOL,33.79874,-117.98567,HS,Garden Grove,Orange,CA,USA
51034,PACIFICA HIGH SCHOOL,33.782033,-118.013969,HS,Garden Grove,Orange,CA,USA
51035,GEYSERVILLE NEW TECH ACADEMY,38.720207,-122.890563,HS,Geyserville,Sonoma,CA,USA
51036,GOLDEN SIERRA HIGH SCHOOL,38.849643,-120.856354,HS,Garden Valley,El Dorado,CA,USA
51040,GILROY HIGH SCHOOL,36.995302,-121.57562,HS,Gilroy,Santa Clara,CA,USA
51045,SUNNYSIDE HIGH SCHOOL,36.732844,-119.717047,HS,Fresno,Fresno,CA,USA
51049,GEORGE KIRIYAMA COMM ADULT SCH,33.867026,-118.29859,HS,Gardena,Los Angeles,CA,USA
51050,GLENDALE HIGH SCHOOL,34.145992,-118.232502,HS,Glendale,Los Angeles,CA,USA
51055,GLENDALE ACADEMY,34.157626,-118.226713,HS,Glendale,Los Angeles,CA,USA
51788,FOSHAY LEARNING CENTER,34.019144,-118.307107,HS,Los Angeles,Los Angeles,CA,USA
4038,CAL POLY SAN LUIS OBISPO,35.305005,-120.662494,4Y,San Luis Obispo,San Luis Obispo,CA,USA
4088,CALIF LUTHERAN UNIVERSITY,34.225017,-118.878854,4Y,Thousand Oaks,Ventura,CA,USA
4851,SANTA CLARA UNIVERSITY,37.349642,-121.938987,4Y,Santa Clara,Santa Clara,CA,USA
979016,CAL POLY SAN LUIS OBISPO SUMMER SCH,35.305005,-120.662494,4Y,San Luis Obispo,San Luis Obispo,CA,USA
2830,SANTIAGO CANYON COLLEGE,33.795734,-117.766155,CC,Orange,Orange,CA,USA
50663,YGNACIO VALLEY HIGH SCHOOL,37.936303,-122.025056,HS,Concord,Contra Costa,CA,USA
51060,HERBERT HOOVER HIGH SCHOOL,34.165736,-118.270532,HS,Glendale,Los Angeles,CA,USA
51065,HOLY FAMILY HIGH SCHOOL,34.140821,-118.250793,HS,Glendale,Los Angeles,CA,USA
51070,GLENDORA HIGH SCHOOL,34.1343,-117.835489,HS,Glendora,Los Angeles,CA,USA
51072,LCP INTERNATIONAL INSTITUTE,33.653873,-117.747284,HS,Glendora,Los Angeles,CA,USA
51075,SAINT LUCYS PRIORY HIGH SCHOOL,34.148153,-117.877066,HS,Glendora,Los Angeles,CA,USA
51082,DA VINCI CHARTER ACADEMY,38.552823,-121.733354,HS,Davis,Yolo,CA,USA
51083,FORESTHILL HIGH SCHOOL,39.017207,-120.834646,HS,Foresthill,Placer,CA,USA
51085,GONZALES HIGH SCHOOL,36.511566,-121.441522,HS,Gonzales,Monterey,CA,USA
51088,GRANADA HILLS CHARTER HIGH SCH,34.261095,-118.525852,HS,Granada Hills,Los Angeles,CA,USA
51089,JOHN F KENNEDY HIGH SCHOOL,34.275751,-118.487582,HS,Granada Hills,Los Angeles,CA,USA
51095,NEVADA UNION TECH HIGH SCHOOL,39.23951,-121.055854,HS,Grass Valley,Nevada,CA,USA
51105,GRIDLEY HIGH SCHOOL,39.367009,-121.684306,HS,Gridley,Butte,CA,USA
51106,GRANITE BAY HIGH SCHOOL,38.732337,-121.21343,HS,Granite Bay,Placer,CA,USA
51109,HILLCREST CHRISTIAN SCHOOL,34.28013,-118.515831,HS,Granada Hills,Los Angeles,CA,USA
51110,GROSSMONT HIGH SCHOOL,32.780617,-116.986292,HS,La Mesa,San Diego,CA,USA
51862,EDWARD R ROYBAL LEARNING CNTR,34.060745,-118.254698,HS,Los Angeles,Los Angeles,CA,USA
51982,CENTRAL CATHOLIC HIGH SCHOOL,37.636374,-121.029844,HS,Modesto,Stanislaus,CA,USA
52060,LIVE OAK HIGH SCHOOL,37.147597,-121.63537,HS,Morgan Hill,Santa Clara,CA,USA
989927,HAMILTON HUMANITIES MAGNET,33.973951,-118.248405,HS,Los Angeles,Los Angeles,CA,USA
998463,KING-DREW MEDICAL MAGNET HIGH,33.973951,-118.248405,HS,Los Angeles,Los Angeles,CA,USA
50321,LE LYCEE FRANCAIS DE LOS ANGELES,34.027772,-118.414233,HS,Los Angeles,Los Angeles,CA,USA
50657,CONCORD HIGH SCHOOL,37.977486,-121.988255,HS,Concord,Contra Costa,CA,USA
51113,GREENFIELD HIGH SCHOOL,36.312754,-121.240568,HS,Greenfield,Monterey,CA,USA
51120,HALF MOON BAY HIGH SCHOOL,37.472951,-122.42843,HS,Half Moon Bay,San Mateo,CA,USA
51122,HAWTHORNE MATH & SCIENCE ACAD,33.920203,-118.354265,HS,Hawthorne,Los Angeles,CA,USA
51805,THEODORE ROOSEVELT SENIOR HS,34.038338,-118.211075,HS,Los Angeles,Los Angeles,CA,USA
51815,THOMAS JEFFERSON HIGH SCHOOL,34.010879,-118.25101,HS,Los Angeles,Los Angeles,CA,USA
51823,JORDAN NEW TECH HIGH SCHOOL,33.944531,-118.231099,HS,Los Angeles,Los Angeles,CA,USA
51880,LOS ANGELES ADVENTIST ACADEMY,33.915787,-118.259368,HS,Los Angeles,Los Angeles,CA,USA
52498,MARIN SCHOOL THE,37.896449,-122.54342,HS,Mill Valley,Marin,CA,USA
4039,ALLIANT INTL UNIV SAN DIEGO,32.896908,-117.093163,4Y,San Diego,San Diego,CA,USA
4836,UC SAN DIEGO SUMMER SESSION,32.88006,-117.234013,4Y,La Jolla,San Diego,CA,USA
4004,AMERICAN RIVER COLLEGE,38.65099,-121.348804,CC,Sacramento,Sacramento,CA,USA
50651,COMPTON SENIOR HIGH SCHOOL,33.890324,-118.22723,HS,Compton,Los Angeles,CA,USA
50656,CARONDELET HIGH SCHOOL,37.93316,-122.033462,HS,Concord,Contra Costa,CA,USA
50658,CLAYTON VALLEY HIGH SCHOOL,37.950465,-121.969507,HS,Concord,Contra Costa,CA,USA
51058,RIBET ACADEMY,34.112718,-118.242642,HS,Los Angeles,Los Angeles,CA,USA
51125,HAMILTON UNION HIGH SCHOOL,39.745478,-122.01943,HS,Hamilton City,Glenn,CA,USA
51128,HANFORD WEST HIGH SCHOOL,36.330243,-119.662134,HS,Hanford,Kings,CA,USA
51130,HANFORD HIGH SCHOOL,36.343049,-119.644444,HS,Hanford,Kings,CA,USA
51131,HANFORD HIGH SCHOOL,36.343049,-119.644444,HS,Hanford,Kings,CA,USA
51135,HAPPY CAMP HIGH SCHOOL,41.795124,-123.378111,HS,Happy Camp,Siskiyou,CA,USA
51811,ORTHOPAEDIC HOSP MED MAGNET HS,34.028844,-118.271211,HS,Los Angeles,Los Angeles,CA,USA
51829,VERBUM DEI HIGH SCHOOL,33.934685,-118.253366,HS,Los Angeles,Los Angeles,CA,USA
51840,WOODROW WILSON HIGH SCHOOL,34.069985,-118.186262,HS,Los Angeles,Los Angeles,CA,USA
51845,LOS BANOS HIGH SCHOOL,37.051085,-120.841605,HS,Los Banos,Merced,CA,USA
51855,LOS GATOS HIGH SCHOOL,37.222508,-121.975949,HS,Los Gatos,Santa Clara,CA,USA
51863,DUNN SCHOOL,34.657081,-120.102124,HS,Los Olivos,Santa Barbara,CA,USA
51864,OLIVE GROVE CHARTER SCHOOL,34.610047,-120.187113,HS,Los Olivos,Santa Barbara,CA,USA
51865,MIDLAND SCHOOL,34.731822,-120.087387,HS,Los Olivos,Santa Barbara,CA,USA
51870,LOWER LAKE HIGH SCHOOL,38.914828,-122.60794,HS,Lower Lake,Lake,CA,USA
51875,LOYALTON HIGH SCHOOL,39.679559,-120.245319,HS,Loyalton,Sierra,CA,USA
51968,CAPISTRANO VALLEY HIGH SCHOOL,33.541543,-117.669794,HS,Mission Viejo,Orange,CA,USA
52339,ARCHER SCHOOL FOR GIRLS,34.065091,-118.471615,HS,Los Angeles,Los Angeles,CA,USA
51874,MADERA SOUTH HIGH SCHOOL,36.9394,-120.066481,HS,Madera,Madera,CA,USA
50150,ARROYO GRANDE HIGH SCHOOL,35.116131,-120.580667,HS,Arroyo Grande,San Luis Obispo,CA,USA
50645,COLUSA HIGH SCHOOL,39.19987,-122.020523,HS,Colusa,Colusa,CA,USA
51140,NARBONNE HIGH SCHOOL,33.803685,-118.306512,HS,Harbor City,Los Angeles,CA,USA
51145,HAWTHORNE HIGH SCHOOL,33.917329,-118.363146,HS,Hawthorne,Los Angeles,CA,USA
51148,HAYFORK HIGH SCHOOL,40.551533,-123.170861,HS,Hayfork,Trinity,CA,USA
51150,HAYWARD HIGH SCHOOL,37.670868,-122.068786,HS,Hayward,Alameda,CA,USA
51153,MOUNT EDEN HIGH SCHOOL,37.62531,-122.089651,HS,Hayward,Alameda,CA,USA
51155,RIO LINDO ACADEMY,38.626903,-122.842401,HS,Healdsburg,Sonoma,CA,USA
51156,MOREAU CATHOLIC HIGH SCHOOL,37.643895,-122.059869,HS,Hayward,Alameda,CA,USA
51160,HEALDSBURG HIGH SCHOOL,38.622361,-122.867397,HS,Healdsburg,Sonoma,CA,USA
51161,WEST VALLEY HIGH SCHOOL,33.720022,-117.009745,HS,Hemet,Riverside,CA,USA
51165,HEMET HIGH SCHOOL,33.729158,-116.933793,HS,Hemet,Riverside,CA,USA
51168,HESPERIA HIGH SCHOOL,34.430545,-117.347544,HS,Hesperia,San Bernardino,CA,USA
51172,HESPERIA CHRISTIAN SCHOOL,34.416907,-117.297111,HS,Hesperia,San Bernardino,CA,USA
51175,HILMAR HIGH SCHOOL,37.401387,-120.851577,HS,Hilmar,Merced,CA,USA
51180,SAN BENITO HIGH SCHOOL,36.840918,-121.404689,HS,Hollister,San Benito,CA,USA
51189,OPTIONS FOR YOUTH VICTOR VALLY,34.471086,-117.33717,HS,Hesperia,San Bernardino,CA,USA
51200,HOLTVILLE HIGH SCHOOL,32.815273,-115.386348,HS,Holtville,Imperial,CA,USA
51205,HOOPA VALLEY HIGH SCHOOL,41.049712,-123.675574,HS,Hoopa,Humboldt,CA,USA
51206,HERCULES HIGH SCHOOL,37.999726,-122.253862,HS,Hercules,Contra Costa,CA,USA
51215,HUGHSON HIGH SCHOOL,37.595392,-120.859461,HS,Hughson,Stanislaus,CA,USA
51216,DA VINCI DESIGN HIGH SCHOOL,33.919252,-118.374742,HS,Hawthorne,Los Angeles,CA,USA
51218,EDISON HIGH SCHOOL,33.652096,-117.97005,HS,Huntington Beach,Orange,CA,USA
51220,HUNTINGTON BEACH HIGH SCHOOL,33.676416,-118.002571,HS,Huntington Beach,Orange,CA,USA
51221,MARINA HIGH SCHOOL,33.731508,-118.027188,HS,Huntington Beach,Orange,CA,USA
51224,OCEAN VIEW HIGH SCHOOL,33.714597,-118.000825,HS,Huntington Beach,Orange,CA,USA
51228,DR TJ OWENS GILROY EARLY COLG,36.974602,-121.567993,HS,Gilroy,Santa Clara,CA,USA
51230,HUNTINGTON PARK HIGH SCHOOL,33.986627,-118.21903,HS,Huntington Park,Los Angeles,CA,USA
51231,LEADERSHIP PUBLIC SCH HAYWARD,37.623302,-122.087201,HS,Hayward,Alameda,CA,USA
51232,SAINT PIUS X-ST MATTHIAS ACDMY,33.919494,-118.159847,HS,Downey,Los Angeles,CA,USA
51236,IDYLLWILD ARTS ACADEMY,33.733713,-116.746811,HS,Idyllwild,Riverside,CA,USA
51240,IMPERIAL HIGH SCHOOL,32.848212,-115.575882,HS,Imperial,Imperial,CA,USA
51242,MAR VISTA HIGH SCHOOL,32.579226,-117.121833,HS,Imperial Beach,San Diego,CA,USA
51244,MATER DEI CATHOLIC HIGH SCHOOL,32.620459,-116.976331,HS,San Diego,San Diego,CA,USA
51247,INDIO HIGH SCHOOL,33.713355,-116.239174,HS,Indio,Riverside,CA,USA
51255,ANIMO INGLEWOOD CHARTER HS,33.960444,-118.331725,HS,Inglewood,Los Angeles,CA,USA
51257,ANIMO LEADERSHIP CHARTER HS,33.934737,-118.347703,HS,Inglewood,Los Angeles,CA,USA
51260,INGLEWOOD HIGH SCHOOL,33.96067,-118.356238,HS,Inglewood,Los Angeles,CA,USA
51262,MORNINGSIDE HIGH SCHOOL,33.94075,-118.334096,HS,Inglewood,Los Angeles,CA,USA
51268,JURUPA HILLS HIGH SCHOOL,34.059745,-117.449654,HS,Fontana,San Bernardino,CA,USA
51283,NORTHWOOD HIGH SCHOOL,33.734223,-117.750261,HS,Irvine,Orange,CA,USA
51285,JULIAN UNION HIGH SCHOOL,33.077148,-116.59546,HS,Julian,San Diego,CA,USA
51290,KELSEYVILLE HIGH SCHOOL,38.974475,-122.830093,HS,Kelseyville,Lake,CA,USA
51295,KERMAN HIGH SCHOOL,36.732251,-120.066411,HS,Kerman,Fresno,CA,USA
51885,LYNWOOD HIGH SCHOOL,33.93098,-118.189422,HS,Lynwood,Los Angeles,CA,USA
51890,MADERA HIGH SCHOOL,36.95536,-120.065666,HS,Madera,Madera,CA,USA
50926,FALL RIVER JUNIOR-SENIOR HS,41.046268,-121.402812,HS,Mcarthur,Shasta,CA,USA
51296,PARTNERSHIPS STUDNT CENTER LRN,38.89765,-121.3293,HS,Lincoln,Placer,CA,USA
51298,CREAN LUTHERAN HIGH SCHOOL,33.70217,-117.731936,HS,Irvine,Orange,CA,USA
51300,BENTLEY SCHOOL,37.892253,-122.150478,HS,Lafayette,Contra Costa,CA,USA
51301,CLARK MAGNET HIGH SCHOOL,34.237499,-118.253908,HS,La Crescenta,Los Angeles,CA,USA
51305,KING CITY JOINT UNION HS,36.208524,-121.133546,HS,King City,Monterey,CA,USA
51307,HILLSIDE SCHOOL LEARNING CTR,34.187844,-118.179297,HS,La Canada,Los Angeles,CA,USA
51308,RENAISSANCE ACADEMY,34.19751,-118.148474,HS,Altadena,Los Angeles,CA,USA
51310,KINGSBURG HIGH SCHOOL,36.518215,-119.54737,HS,Kingsburg,Fresno,CA,USA
51312,LA CANADA HIGH SCHOOL,34.193055,-118.178466,HS,La Canada,Los Angeles,CA,USA
51313,CRESCENTA VALLEY HIGH SCHOOL,34.223392,-118.243165,HS,La Crescenta,Los Angeles,CA,USA
51315,ACALANES HIGH SCHOOL,37.904302,-122.097738,HS,Lafayette,Contra Costa,CA,USA
51316,CONTRA COSTA CHRISTIAN HS,37.922282,-122.079196,HS,Walnut Creek,Contra Costa,CA,USA
51317,ARROWSMITH ACADEMY,37.867959,-122.263209,HS,Berkeley,Alameda,CA,USA
51319,DELPHI ACADEMY,34.275734,-118.364636,HS,La Canada,Los Angeles,CA,USA
51320,LAGUNA BEACH HIGH SCHOOL,33.541853,-117.775401,HS,Laguna Beach,Orange,CA,USA
51325,LA HABRA HIGH SCHOOL,33.936037,-117.957417,HS,La Habra,Orange,CA,USA
51327,SONORA HIGH SCHOOL,33.927679,-117.925089,HS,La Habra,Orange,CA,USA
51328,LA QUINTA HIGH SCHOOL,33.713506,-116.28052,HS,La Quinta,Riverside,CA,USA
51330,BISHOPS SCHOOL,32.841292,-117.278338,HS,La Jolla,San Diego,CA,USA
51333,LA JOLLA COUNTRY DAY SCHOOL,32.878598,-117.216727,HS,La Jolla,San Diego,CA,USA
51339,LUTHERAN HIGH SCHOOL SAN DIEGO,32.641619,-117.006902,HS,Chula Vista,San Diego,CA,USA
51340,RIM OF THE WORLD HIGH SCHOOL,34.231698,-117.210775,HS,Lake Arrowhead,San Bernardino,CA,USA
51342,KERN VALLEY HIGH SCHOOL,35.607894,-118.464807,HS,Lake Isabella,Kern,CA,USA
51346,EL CAPITAN HIGH SCHOOL,32.868368,-116.916449,HS,Lakeside,San Diego,CA,USA
51347,LAKEWOOD HIGH SCHOOL,33.838433,-118.122097,HS,Lakewood,Los Angeles,CA,USA
51348,MAYFAIR HIGH SCHOOL,33.864174,-118.116684,HS,Lakewood,Los Angeles,CA,USA
51350,HELIX HIGH SCHOOL,32.754084,-117.036569,HS,La Mesa,San Diego,CA,USA
51352,LA MIRADA HIGH SCHOOL,33.908262,-118.003048,HS,La Mirada,Los Angeles,CA,USA
51356,PARACLETE HIGH SCHOOL,34.64819,-118.183859,HS,Lancaster,Los Angeles,CA,USA
51357,NOGALES HIGH SCHOOL,34.009556,-117.889152,HS,La Puente,Los Angeles,CA,USA
51359,LA PUENTE HIGH SCHOOL,34.025926,-117.954533,HS,La Puente,Los Angeles,CA,USA
51360,LOS ALTOS HIGH SCHOOL,34.007752,-117.977114,HS,Hacienda Heights,Los Angeles,CA,USA
51361,REDWOOD HIGH SCHOOL,37.938251,-122.524948,HS,Larkspur,Marin,CA,USA
51362,BISHOP AMAT MEMORIAL HS,34.053981,-117.965133,HS,La Puente,Los Angeles,CA,USA
51363,LATON HIGH SCHOOL,36.435036,-119.682555,HS,Laton,Fresno,CA,USA
51369,LAGUNA HILLS HIGH SCHOOL,33.593663,-117.702379,HS,Laguna Hills,Orange,CA,USA
51370,BONITA HIGH SCHOOL,34.107789,-117.766035,HS,La Verne,Los Angeles,CA,USA
51373,LUTHERAN HIGH SCHOOL,34.115272,-117.760522,HS,La Verne,Los Angeles,CA,USA
51375,LEUZINGER HIGH SCHOOL,33.901768,-118.347068,HS,Lawndale,Los Angeles,CA,USA
51431,LAWNDALE HIGH SCHOOL,33.896211,-118.363856,HS,Lawndale,Los Angeles,CA,USA
51377,LAWNDALE HIGH SCHOOL,33.896211,-118.363856,HS,Lawndale,Los Angeles,CA,USA
51378,BETHEL CHRISTIAN HIGH SCHOOL,34.673872,-118.18577,HS,Lancaster,Los Angeles,CA,USA
51380,LAYTONVILLE HIGH SCHOOL,39.690239,-123.488628,HS,Laytonville,Mendocino,CA,USA
51381,CALVARY BAPTIST SCHOOLS,34.110764,-117.786271,HS,La Verne,Los Angeles,CA,USA
51385,LEE VINING HIGH SCHOOL,37.961148,-119.121267,HS,Lee Vining,Mono,CA,USA
51389,DESERT CHRISTIAN HIGH SCHOOL,34.681874,-118.173522,HS,Lancaster,Los Angeles,CA,USA
51392,ANTELOPE VALLEY CHRISTIAN SCH,34.698405,-118.133177,HS,Lancaster,Los Angeles,CA,USA
51395,LE GRAND UNION HIGH SCHOOL,37.22814,-120.253381,HS,Le Grand,Merced,CA,USA
51396,TAMISCAL HIGH SCHOOL,37.937832,-122.529631,HS,Larkspur,Marin,CA,USA
51907,PALOMA VALLEY HIGH SCHOOL,33.664589,-117.190266,HS,Menifee,Riverside,CA,USA
51945,MCFARLAND HIGH SCHOOL,35.674103,-119.230738,HS,Mcfarland,Kern,CA,USA
4031,CALIF COLL OF THE ARTS,37.767528,-122.399502,4Y,San Francisco,San Francisco,CA,USA
4094,CALIF BAPTIST UNIVERSITY,33.928407,-117.42556,4Y,Riverside,Riverside,CA,USA
6458,CALIFORNIA MIRAMAR UNIVERSITY,32.779234,-117.118095,4Y,San Diego,San Diego,CA,USA
50637,COLFAX HIGH SCHOOL,39.107252,-120.964714,HS,Colfax,Placer,CA,USA
51321,PACIFIC SHORES PRIVATE HS,33.541543,-117.669794,HS,Mission Viejo,Orange,CA,USA
51400,LEMOORE UNION HIGH SCHOOL,36.297596,-119.779969,HS,Lemoore,Kings,CA,USA
51405,LINCOLN HIGH SCHOOL,38.895565,-121.299113,HS,Lincoln,Placer,CA,USA
51410,LINDEN HIGH SCHOOL,38.020083,-121.08969,HS,Linden,San Joaquin,CA,USA
51412,LANCASTER HIGH SCHOOL,34.693953,-118.189426,HS,Lancaster,Los Angeles,CA,USA
51415,LINDSAY HIGH SCHOOL,36.210829,-119.064897,HS,Lindsay,Tulare,CA,USA
51416,FRAZIER MOUNTAIN HIGH SCHOOL,34.79962,-118.891554,HS,Lebec,Kern,CA,USA
51418,LITTLEROCK HIGH SCHOOL,34.573929,-117.937074,HS,Littlerock,Los Angeles,CA,USA
51420,LIVE OAK HIGH SCHOOL,39.277691,-121.657582,HS,Live Oak,Sutter,CA,USA
51423,GRANADA HIGH SCHOOL,37.674873,-121.789073,HS,Livermore,Alameda,CA,USA
51425,LIVERMORE HIGH SCHOOL,37.680816,-121.761531,HS,Livermore,Alameda,CA,USA
51427,HORIZON INSTRUCTIONAL SYSTEMS,38.897505,-121.329791,HS,Lincoln,Placer,CA,USA
796120,AIGLON COLLEGE,46.302567,7.046984,HS,Chesieres,,,SWITZERLAND
51430,LIVINGSTON HIGH SCHOOL,37.376055,-120.722272,HS,Livingston,Merced,CA,USA
51435,LODI ACADEMY,38.117971,-121.262731,HS,Lodi,San Joaquin,CA,USA
51441,LODI HIGH SCHOOL,38.134086,-121.291234,HS,Lodi,San Joaquin,CA,USA
51444,JIM ELLIOT CHRISTIAN HS,38.123627,-121.309694,HS,Lodi,San Joaquin,CA,USA
51445,LOMA LINDA ACADEMY,34.059214,-117.261488,HS,Loma Linda,San Bernardino,CA,USA
51446,RIVER VALLEY CHARTER SCHOOL,32.85301,-116.939347,HS,Lakeside,San Diego,CA,USA
51449,LUCERNE VALLEY HIGH SCHOOL,34.45763,-116.938887,HS,Lucerne Valley,San Bernardino,CA,USA
51452,FOOTHILLS CHRISTIAN HS,32.797903,-116.995532,HS,El Cajon,San Diego,CA,USA
51455,LOMPOC HIGH SCHOOL,34.648649,-120.463727,HS,Lompoc,Santa Barbara,CA,USA
51460,LONE PINE HIGH SCHOOL,36.60223,-118.061327,HS,Lone Pine,Inyo,CA,USA
51465,DAV STARR JORDAN HIGH SCHOOL,33.870947,-118.185049,HS,Long Beach,Los Angeles,CA,USA
51472,ENVIRONMENTAL CHARTER HS,33.882303,-118.3553,HS,Lawndale,Los Angeles,CA,USA
51476,ROBERT A MILLIKAN HIGH SCHOOL,33.807792,-118.110946,HS,Long Beach,Los Angeles,CA,USA
51501,RENAISSANCE HIGH SCHOOL ARTS,33.793494,-118.174048,HS,Long Beach,Los Angeles,CA,USA
51477,RENAISSANCE HIGH SCHOOL ARTS,33.793494,-118.174048,HS,Long Beach,Los Angeles,CA,USA
51479,PREUSS SCHOOL UCSD,32.882712,-117.222117,HS,La Jolla,San Diego,CA,USA
51480,LONG BEACH POLYTECHNIC HS,33.786805,-118.182936,HS,Long Beach,Los Angeles,CA,USA
51498,LENNOX MATH SCIENCE TECH ACAD,33.934754,-118.35228,HS,Lennox,Los Angeles,CA,USA
51500,SAINT ANTHONY HIGH SCHOOL,33.774606,-118.181931,HS,Long Beach,Los Angeles,CA,USA
51504,JUAN RODRIGUEZ CABRILLO HS,33.794084,-118.21582,HS,Long Beach,Los Angeles,CA,USA
51966,HALSTROM ACADEMY MISSION VIEJO,33.602672,-117.689761,HS,Mission Viejo,Orange,CA,USA
51978,MILPITAS HIGH SCHOOL,37.450932,-121.90053,HS,Milpitas,Santa Clara,CA,USA
51981,MISSION VIEJO HIGH SCHOOL,33.596709,-117.671855,HS,Mission Viejo,Orange,CA,USA
51983,GRACE M DAVIS HIGH SCHOOL,37.681816,-121.01044,HS,Modesto,Stanislaus,CA,USA
51985,MODESTO HIGH SCHOOL,37.631072,-121.007299,HS,Modesto,Stanislaus,CA,USA
52042,OAKWOOD SCHOOL,37.104076,-121.634657,HS,Morgan Hill,Santa Clara,CA,USA
52055,MOORPARK COMMUNITY HIGH SCHOOL,34.269765,-118.898233,HS,Moorpark,Ventura,CA,USA
798150,UNITED WORLD COLLEGE ATLANTIC,51.404549,-3.529857,HS,Glamorgan,,,WALES
692103,DHAHRAN HIGH SCHOOL,26.302226,50.154991,HS,Dhahran,,,SAUDI ARABIA
1981,ACADEMY OF ART UNIVERSITY,37.787958,-122.400468,4Y,San Francisco,San Francisco,CA,USA
3356,IRVINE VALLEY COLLEGE,33.6769856,-117.775946,CC,Irvine,Orange,CA,USA
51311,SAINT FRANCIS HIGH SCHOOL,34.195354,-118.182342,HS,La Canada,Los Angeles,CA,USA
51505,WOODROW WILSON HIGH SCHOOL,33.776889,-118.140621,HS,Long Beach,Los Angeles,CA,USA
51506,OPPORTUNITIES LRN-WILLIAM HART,34.67168,-118.151842,HS,Lancaster,Los Angeles,CA,USA
51508,LOS ALAMITOS HIGH SCHOOL,33.810967,-118.069878,HS,Los Alamitos,Orange,CA,USA
51512,PINEWOOD SCHOOL,37.367163,-122.104685,HS,Los Altos Hills,Santa Clara,CA,USA
692145,DHAHRAN AHLIYYA SCHOOL,26.328539,50.165199,HS,Dhahran,,,SAUDI ARABIA
51513,PALO ALTO PREPARATORY SCHOOL,37.41728,-122.098175,HS,Mountain View,Santa Clara,CA,USA
51518,OPPORTUNITIES LRN-BALDWIN PARK,34.089452,-117.960068,HS,Irwindale,Los Angeles,CA,USA
51520,ABRAHAM LINCOLN HIGH SCHOOL,34.074709,-118.203683,HS,Los Angeles,Los Angeles,CA,USA
51523,LOCKE SENIOR HIGH SCHOOL,33.935379,-118.268409,HS,Los Angeles,Los Angeles,CA,USA
51525,ALEXANDER HAMILTON HIGH SCHOOL,34.034135,-118.391615,HS,Los Angeles,Los Angeles,CA,USA
51526,HIGH TECH HIGH LA,34.187212,-118.506131,HS,Lake Balboa,Los Angeles,CA,USA
51536,LEMOORE MIDDLE COLLEGE HS,36.291051,-119.823318,HS,Lemoore,Kings,CA,USA
51540,BELMONT HIGH SCHOOL,34.061457,-118.262934,HS,Los Angeles,Los Angeles,CA,USA
51541,LIVERMORE VALLEY CHARTER PREP,37.706725,-121.814791,HS,Livermore,Alameda,CA,USA
51546,OPPORTUNITIES LRNG-BALDWIN II,33.903875,-118.209708,HS,Compton,Los Angeles,CA,USA
51547,PACIFIC HILLS SCHOOL,34.090315,-118.380265,HS,Los Angeles,Los Angeles,CA,USA
51548,PUC CALIFORNIA ACDMY LIB STUDY,34.137178,-118.187485,HS,Burbank,Los Angeles,CA,USA
51550,BENJAMIN FRANKLIN HIGH SCHOOL,34.115417,-118.198792,HS,Los Angeles,Los Angeles,CA,USA
51555,BRENTWOOD SCHOOL,34.067168,-118.468795,HS,Los Angeles,Los Angeles,CA,USA
51560,CATHEDRAL HIGH SCHOOL,34.069826,-118.234596,HS,Los Angeles,Los Angeles,CA,USA
51561,LA CENTER ENRICHED STUDIES,34.043846,-118.371576,HS,Los Angeles,Los Angeles,CA,USA
51569,CRENSHAW HIGH SCHOOL,33.996962,-118.329089,HS,Los Angeles,Los Angeles,CA,USA
51575,DAVID STARR JORDAN HS,33.944531,-118.231099,HS,Los Angeles,Los Angeles,CA,USA
51576,DOWNTOWN MAGNETS HIGH SCHOOL,34.063045,-118.250412,HS,Los Angeles,Los Angeles,CA,USA
51580,EAGLE ROCK HIGH SCHOOL,34.131966,-118.205146,HS,Los Angeles,Los Angeles,CA,USA
52056,RANCHO VERDE HIGH SCHOOL,33.861364,-117.208372,HS,Moreno Valley,Riverside,CA,USA
52057,VALLEY VIEW HIGH SCHOOL,33.930992,-117.194857,HS,Moreno Valley,Riverside,CA,USA
52059,CANYON SPRINGS HIGH SCHOOL,33.962741,-117.258044,HS,Moreno Valley,Riverside,CA,USA
670480,DIOCESAN GIRLS SCHOOL,22.306994,114.173154,HS,Hong Kong,,,HONG KONG
668320,ENGLISH SCHOOL,35.185566,33.382276,HS,Nicosia,,,CYPRUS
617135,GHANA INTERNATIONAL SCHOOL,5.580352,-0.176446,HS,Accra,,,GHANA
910450,ESCOLA AMER DO RIO DE JANEIRO,-22.995136,-43.402528,HS,Rio De Janeiro,,,BRAZIL
670500,GOOD HOPE SCHOOL,22.33437,114.219414,HS,Hong Kong,,,HONG KONG
670905,GERMAN SWISS INTERNATIONAL SCH,22.265971,114.161563,HS,Hong Kong,,,HONG KONG
671067,GOOD SHEPHERD INTNL SCHOOL,11.373138,76.670553,HS,Ooty,,,INDIA
690259,FROEBELS INTERNATIONAL SCHOOL,33.624129,72.974291,HS,Rawalpindi,,,PAKISTAN
671089,GALAXY SCHOOL,10.92204,79.826423,HS,Karaikal,,,INDIA
694564,GUANGDONG EXPERIMENTAL HS,23.126054,113.277396,HS,Guangzhou,,,CHINA
694301,EXPERIMENTAL BEIJING NORML UNV,39.911251,116.368345,HS,Beijing,,,CHINA
694606,FUZHOU NO 8 HIGH SCHOOL,26.060001,119.306825,HS,Fuzhou,,,CHINA
30030,BUCKEYE UNION HIGH SCHOOL,33.375091,-112.576937,HS,Buckeye,,AZ,USA
30617,ARETE PREPARATORY ACADEMY,33.378704,-111.73636,HS,Gilbert,,AZ,USA
50144,ARROYO PACIFIC ACADEMY,34.142202,-118.033092,HS,Arcadia,Los Angeles,CA,USA
51590,FAIRFAX HIGH SCHOOL,34.082157,-118.359763,HS,Los Angeles,Los Angeles,CA,USA
910580,ESCOLA PAN AMERICANA DA BAHIA,-12.956559,-38.400865,HS,Bahia,,,BRAZIL
870480,GREENGATES SCHOOL,19.48485,-99.261822,HS,Mexico City,,,MEXICO
846400,ESCUELA AMERICANA,13.695539,-89.239292,HS,San Salvador,,,EL SALVADOR
910700,FUNDACAO ANGLO BRASILEIRA,-23.570858,-46.681674,HS,Brasilia,,,BRAZIL
51594,JOHN C FREMONT CMTY ADULT SCH,33.969845,-118.269149,HS,Los Angeles,Los Angeles,CA,USA
788590,ANGLO-AMERICAN SCHOOL MOSCOW,55.82689,37.461947,HS,MOSCOW,,,RUSSIA
731595,ECOLE ACTIVE BILINGUE JM,48.84732,2.290726,HS,Paris,,,FRANCE
51605,GEORGE WASHINGTON PREP HS,33.938188,-118.303002,HS,Los Angeles,Los Angeles,CA,USA
671627,GD GOENKA WORLD SCHOOL,28.26665,77.064898,HS,Sohna,,,INDIA
696146,EYUBOGLU HIGH SCHOOL,41.017323,29.087595,HS,Istanbul,,,TURKEY
671630,FIITJEE JUNIOR COLLEGE,17.498298,78.40981,HS,Hyderabad,,,INDIA
671668,ECOLE MONDIALE WORLD SCHOOL,19.113147,72.833916,HS,Mumbai,,,INDIA
51612,FUSION ACADEMY - LOS ANGELES,34.048906,-118.445118,HS,Los Angeles,Los Angeles,CA,USA
51615,HOLLYWOOD HIGH SCHOOL,34.099165,-118.340051,HS,Los Angeles,Los Angeles,CA,USA
51620,SOUTH REGION HS #2A-PUBLIC SER,33.983788,-118.256015,HS,Los Angeles,Los Angeles,CA,USA
51622,GREEN DESIGN COMMUNITY SCHOOL,33.983366,-118.255299,HS,Los Angeles,Los Angeles,CA,USA
51625,IMMACULATE HEART HIGH SCHOOL,34.105772,-118.310407,HS,Los Angeles,Los Angeles,CA,USA
51635,JAMES A GARFIELD HIGH SCHOOL,34.026272,-118.158248,HS,Los Angeles,Los Angeles,CA,USA
51645,JOHN C FREMONT HIGH SCHOOL,33.969845,-118.269149,HS,Los Angeles,Los Angeles,CA,USA
51650,JOHN MARSHALL HIGH SCHOOL,34.107931,-118.277474,HS,Los Angeles,Los Angeles,CA,USA
51652,LAUSD/USC MATH SCI TECH SCH,34.0245,-118.28266,HS,Los Angeles,Los Angeles,CA,USA
51660,LOS ANGELES LEADERSHIP ACADEMY,34.078807,-118.211506,HS,Los Angeles,Los Angeles,CA,USA
51672,KING DREW MAGNET HS MED/SCI,33.924373,-118.24545,HS,Los Angeles,Los Angeles,CA,USA
51677,LOS ANGELES CNTY HS FOR ARTS,34.069256,-118.167093,HS,Los Angeles,Los Angeles,CA,USA
671681,GREENWOOD HIGH SCHOOL,12.899895,77.751748,HS,Bengaluru,,,INDIA
671871,DPS INTERNATIONAL-PUSHP VIHAR,28.527824,77.224067,HS,New Dehli,,,INDIA
724324,HARROW SCHOOL,51.572524,-0.333422,HS,Harrow,,,ENGLAND
52085,NAPA HIGH SCHOOL,38.310911,-122.297808,HS,Napa,Napa,CA,USA
30287,PARADISE VALLEY HIGH SCHOOL,33.703967,-112.351835,HS,Phoenix,,AZ,USA
30289,PHOENIX CHRISTIAN PREP SCHOOL,33.703967,-112.351835,HS,Phoenix,,AZ,USA
694302,HARROW INTRNTL SCHOOL BEIJING,40.036816,116.499691,HS,Beijing,,,CHINA
50628,CLOVIS NORTH HIGH SCHOOL,36.889719,-119.733419,HS,Fresno,Fresno,CA,USA
51679,LOS ANGELES EDUCATION CORPS,34.033873,-118.292432,HS,Los Angeles,Los Angeles,CA,USA
51680,LOS ANGELES SENIOR HIGH SCHOOL,34.055423,-118.332996,HS,Los Angeles,Los Angeles,CA,USA
51682,PACIFIC CHRISTIAN HIGH SCHOOL,34.102542,-118.183348,HS,Los Angeles,Los Angeles,CA,USA
51685,LOYOLA HIGH SCHOOL,34.044917,-118.296672,HS,Los Angeles,Los Angeles,CA,USA
51694,INTERNATIONAL SCHOOL OF LOS ANGELES,34.159548,-118.312786,HS,Burbank,Los Angeles,CA,USA
51700,MANUAL ARTS SENIOR HIGH SCHOOL,34.008262,-118.292173,HS,Los Angeles,Los Angeles,CA,USA
51710,MARLBOROUGH SCHOOL,34.06991,-118.326835,HS,Los Angeles,Los Angeles,CA,USA
51711,GERMAN INTL SCH SILICON VLLY,37.400685,-122.067014,HS,Mountain View,Santa Clara,CA,USA
51715,MARYMOUNT HIGH SCHOOL,34.075961,-118.445243,HS,Los Angeles,Los Angeles,CA,USA
51719,F BRAVO MEDICAL MAGNET HS,34.058262,-118.203501,HS,Los Angeles,Los Angeles,CA,USA
51722,MIDDLE COLLEGE HIGH SCHOOL,33.928673,-118.306533,HS,Los Angeles,Los Angeles,CA,USA
51727,MILKEN COMMUNITY SCHOOL,34.125762,-118.478185,HS,Los Angeles,Los Angeles,CA,USA
51729,NEW COVENANT ACADEMY,34.063957,-118.289673,HS,Los Angeles,Los Angeles,CA,USA
51730,NOTRE DAME ACADEMY,34.033526,-118.418947,HS,Los Angeles,Los Angeles,CA,USA
51734,OHR HAEMET INSTITUTE FOR GIRLS,34.058241,-118.383375,HS,Los Angeles,Los Angeles,CA,USA
51737,LOS ANGELES RIVER SCHOOL,34.102179,-118.237389,HS,Los Angeles,Los Angeles,CA,USA
51739,LOS ANGELES BIG PICTURE HS,34.04867,-118.257536,HS,Los Angeles,Los Angeles,CA,USA
51752,PILGRIM SCHOOL,34.064584,-118.285654,HS,Los Angeles,Los Angeles,CA,USA
51757,ROOSEVELT COMMUNITY ADULT SCH,34.037504,-118.211985,HS,Los Angeles,Los Angeles,CA,USA
51758,ROSE AND ALEX PILIBOS ARMENIAN,34.100301,-118.298587,HS,Los Angeles,Los Angeles,CA,USA
51760,SACRED HEART HIGH SCHOOL,34.069865,-118.21199,HS,Los Angeles,Los Angeles,CA,USA
51761,ASPIRE LIONEL WILSON COLG PREP,37.729534,-122.180279,HS,Oakland,Alameda,CA,USA
51763,RENAISSANCE ARTS ACADEMY,34.108011,-118.241723,HS,Los Angeles,Los Angeles,CA,USA
51777,FREDERICK K C PRICE III SCHOOL,33.967977,-118.293317,HS,Los Angeles,Los Angeles,CA,USA
51780,SAINT MARYS ACADEMY,33.968713,-118.345361,HS,Inglewood,Los Angeles,CA,USA
51781,OSCAR DE LA HOYA ANIMO CHARTER,34.023418,-118.203349,HS,Los Angeles,Los Angeles,CA,USA
821245,HANDSWORTH SECONDARY SCHOOL,49.351381,-123.101015,HS,North Vancouver,,BC,CANADA
52102,NEW TECHNOLOGY HIGH SCHOOL,38.30517,-122.289062,HS,Napa,Napa,CA,USA
52105,SWEETWATER UNION HIGH SCHOOL,32.660072,-117.094159,HS,National City,San Diego,CA,USA
52110,NEEDLES HIGH SCHOOL,34.839777,-114.615844,HS,Needles,San Bernardino,CA,USA
52622,EISENHOWER HIGH SCHOOL,34.12361,-117.377962,HS,Rialto,San Bernardino,CA,USA
520038,SOUTH PACIFIC ACADEMY,-14.330437,-170.718843,HS,Pago Pago,,AS,USA
525040,ACADEMY OF OUR LADY OF GUAM,13.473287,144.752575,HS,Hagatna,,GU,USA
724342,HAILEYBURY,51.77868,-0.034171,HS,Hertford,,,ENGLAND
796612,AMERICAN SCHOOL SWITZERLAND,45.987055,8.922916,HS,Collina d'Oro,,,SWITZERLAND
50122,APPLE VALLEY CHRISTIAN SCHOOL,34.493856,-117.17867,HS,Hesperia,San Bernardino,CA,USA
50615,CLOVIS HIGH SCHOOL,36.817357,-119.681264,HS,Clovis,Fresno,CA,USA
50795,EAST NICOLAUS HIGH SCHOOL,38.911373,-121.527033,HS,Nicolaus,Sutter,CA,USA
51892,MAMMOTH HIGH SCHOOL,37.641465,-118.963074,HS,Mammoth Lakes,Mono,CA,USA
51895,MIRA COSTA HIGH SCHOOL,33.873558,-118.389868,HS,Manhattan Beach,Los Angeles,CA,USA
51896,MALIBU HIGH SCHOOL,34.023893,-118.827049,HS,Malibu,Los Angeles,CA,USA
51899,EAST UNION HIGH SCHOOL,37.822506,-121.234423,HS,Manteca,San Joaquin,CA,USA
51900,MANTECA HIGH SCHOOL,37.796782,-121.212235,HS,Manteca,San Joaquin,CA,USA
51905,MARICOPA HIGH SCHOOL,35.054136,-119.404562,HS,Maricopa,Kern,CA,USA
51910,MARIPOSA COUNTY HIGH SCHOOL,37.488592,-119.963322,HS,Mariposa,Mariposa,CA,USA
51925,MARYSVILLE HIGH SCHOOL,39.155804,-121.587405,HS,Marysville,Yuba,CA,USA
51930,MAXWELL HIGH SCHOOL,39.275539,-122.199755,HS,Maxwell,Colusa,CA,USA
51931,MAYWOOD CHRISTIAN SCHOOL,33.990729,-118.196539,HS,Maywood,Los Angeles,CA,USA
51948,MCKINLEYVILLE HIGH SCHOOL,40.955368,-124.108896,HS,Mckinleyville,Humboldt,CA,USA
51950,MENDOCINO HIGH SCHOOL,39.308233,-123.801542,HS,Mendocino,Mendocino,CA,USA
51951,MENDOCINO COMMUNITY HS,39.308233,-123.801542,HS,Mendocino,Mendocino,CA,USA
51952,MENDOTA HIGH SCHOOL,36.748659,-120.378281,HS,Mendota,Fresno,CA,USA
51963,MERCED HIGH SCHOOL,37.320362,-120.472846,HS,Merced,Merced,CA,USA
51970,MIDDLETOWN HIGH SCHOOL,38.755814,-122.615067,HS,Middletown,Lake,CA,USA
51972,MILLS HIGH SCHOOL,37.5941,-122.390505,HS,Millbrae,San Mateo,CA,USA
51986,FRED C BEYER HIGH SCHOOL,37.690359,-120.967017,HS,Modesto,Stanislaus,CA,USA
51989,JURUPA VALLEY HIGH SCHOOL,34.001725,-117.521864,HS,Mira Loma,Riverside,CA,USA
51990,MODESTO CHRISTIAN HS,37.723061,-121.079818,HS,Modesto,Stanislaus,CA,USA
51994,JOHANSEN HIGH SCHOOL,37.648159,-120.919186,HS,Modesto,Stanislaus,CA,USA
52005,MOJAVE HIGH SCHOOL,35.06072,-118.192647,HS,Mojave,Kern,CA,USA
52015,MONROVIA HIGH SCHOOL,34.146141,-118.016995,HS,Monrovia,Los Angeles,CA,USA
52018,MONTCLAIR HIGH SCHOOL,34.073627,-117.702266,HS,Montclair,San Bernardino,CA,USA
52020,CANTWELL/SACRED HEART MARY HS,34.017378,-118.130215,HS,Montebello,Los Angeles,CA,USA
52029,MONTEBELLO HIGH SCHOOL,34.01564,-118.122874,HS,Montebello,Los Angeles,CA,USA
52031,JOSEPH A GREGORI HIGH SCHOOL,37.720466,-121.0616,HS,Modesto,Stanislaus,CA,USA
52037,SCHURR HIGH SCHOOL,34.027447,-118.122551,HS,Montebello,Los Angeles,CA,USA
52039,MARCO ANTONIO FIREBAUGH HS,33.919285,-118.182233,HS,Lynwood,Los Angeles,CA,USA
52045,SANTA CATALINA SCHOOL,36.592097,-121.868944,HS,Monterey,Monterey,CA,USA
52046,HIGH SCHOOL AT MOORPARK COLL,34.301844,-118.835192,HS,Moorpark,Ventura,CA,USA
52050,MONTEREY HIGH SCHOOL,36.59654,-121.901399,HS,Monterey,Monterey,CA,USA
52061,MORRO BAY HIGH SCHOOL,35.382272,-120.857506,HS,Morro Bay,San Luis Obispo,CA,USA
52073,MURRIETA VALLEY HIGH SCHOOL,33.564007,-117.230714,HS,Murrieta,Riverside,CA,USA
52077,SAINT FRANCIS HIGH SCHOOL,37.36959,-122.086342,HS,Mountain View,Santa Clara,CA,USA
52080,MOUNT SHASTA HIGH SCHOOL,41.321662,-122.305339,HS,Mount Shasta,Siskiyou,CA,USA
52114,NEWARK MEMORIAL HIGH SCHOOL,37.520482,-122.002492,HS,Newark,Alameda,CA,USA
52115,NEWBURY PARK ADVENTIST ACAD,34.193108,-118.936442,HS,Newbury Park,Ventura,CA,USA
759054,BRITISH SCHOOL NETHERLANDS,52.056345,4.401612,HS,DEN HAAG,,,NETHERLANDS
50118,APPLE VALLEY HIGH SCHOOL,34.467192,-117.189447,HS,Apple Valley,San Bernardino,CA,USA
50285,HEAD-ROYCE SCHOOL THE,37.808926,-122.204924,HS,Oakland,Alameda,CA,USA
52117,NEWBURY PARK HIGH SCHOOL,34.183989,-118.951863,HS,Newbury Park,Ventura,CA,USA
52125,ORESTIMBA HIGH SCHOOL,37.321879,-121.032166,HS,Newman,Stanislaus,CA,USA
52128,CORONA DEL MAR HIGH SCHOOL,33.633807,-117.877771,HS,Newport Beach,Orange,CA,USA
52129,NORCO HIGH SCHOOL,33.912014,-117.547524,HS,Norco,Riverside,CA,USA
52130,NEWPORT HARBOR HIGH SCHOOL,33.622969,-117.910863,HS,Newport Beach,Orange,CA,USA
52132,HIGHLANDS HIGH SCHOOL,38.687294,-121.359166,HS,North Highlands,Sacramento,CA,USA
52144,FUTURES HIGH SCHOOL,38.677758,-121.377689,HS,North Highlands,Sacramento,CA,USA
52145,NORTH HOLLYWOOD HIGH SCHOOL,34.165702,-118.388996,HS,North Hollywood,Los Angeles,CA,USA
52146,OAKWOOD SCHOOL,34.149639,-118.375596,HS,North Hollywood,Los Angeles,CA,USA
52153,HIGHLAND HALL,34.245522,-118.505681,HS,Northridge,Los Angeles,CA,USA
52159,HARVARD-WESTLAKE SCHOOL,34.139545,-118.412835,HS,Studio City,Los Angeles,CA,USA
52166,JOHN GLENN HIGH SCHOOL,33.907915,-118.053224,HS,Norwalk,Los Angeles,CA,USA
52167,NORWALK HIGH SCHOOL,33.90824,-118.091736,HS,Norwalk,Los Angeles,CA,USA
52170,NOVATO HIGH SCHOOL,38.089532,-122.573502,HS,Novato,Marin,CA,USA
52172,SAN MARIN HIGH SCHOOL,38.11891,-122.61017,HS,Novato,Marin,CA,USA
52175,OAKDALE HIGH SCHOOL,37.761714,-120.855275,HS,Oakdale,Stanislaus,CA,USA
52176,YOSEMITE HIGH SCHOOL,37.329033,-119.632251,HS,Oakhurst,Madera,CA,USA
52185,BISHOP ODOWD HIGH SCHOOL,37.753265,-122.154697,HS,Oakland,Alameda,CA,USA
52192,COLLEGE PREPARATORY SCHOOL,37.848269,-122.23962,HS,Oakland,Alameda,CA,USA
989341,OJAI VALLEY,35.0748,-78.884257,HS,Ojai,Ventura,CA,USA
50372,FREEDOM HIGH SCHOOL,37.969712,-121.71998,HS,Oakley,Contra Costa,CA,USA
51919,LINDHURST HIGH SCHOOL,39.083567,-121.537714,HS,Olivehurst,Yuba,CA,USA
52178,PATTEN ACADEMY OF CHRSTN EDUC,37.785987,-122.218888,HS,Oakland,Alameda,CA,USA
52200,HOLY NAMES HIGH SCHOOL,37.839411,-122.230927,HS,Oakland,Alameda,CA,USA
989969,ELDORADO PRIVATE SCHOOL,33.640302,-117.769442,HS,Orange,Orange,CA,USA
52211,NIPOMO HIGH SCHOOL,35.049977,-120.487433,HS,Nipomo,San Luis Obispo,CA,USA
52212,LIFE ACADEMY HIGH SCHOOL,37.784701,-122.216549,HS,Oakland,Alameda,CA,USA
52214,NUVIEW BRIDGE EARLY COLLEGE HS,33.829629,-117.129285,HS,Nuevo,Riverside,CA,USA
52220,MCCLYMONDS HIGH SCHOOL,37.818047,-122.278649,HS,Oakland,Alameda,CA,USA
52225,OAKLAND HIGH SCHOOL,37.804467,-122.236761,HS,Oakland,Alameda,CA,USA
52235,SAINT ELIZABETH HIGH SCHOOL,37.778688,-122.22228,HS,Oakland,Alameda,CA,USA
52238,SKYLINE HIGH SCHOOL,37.798004,-122.161875,HS,Oakland,Alameda,CA,USA
52243,MERRITT MIDDLE COLLEGE HS,37.789553,-122.165612,HS,Oakland,Alameda,CA,USA
52247,HALSTROM HIGH SCHOOL-CARLSBAD,33.121031,-117.323472,HS,Oceanside,San Diego,CA,USA
52248,EL CAMINO HIGH SCHOOL,33.217562,-117.318905,HS,Oceanside,San Diego,CA,USA
52249,OCEANSIDE HIGH SCHOOL,33.197067,-117.374143,HS,Oceanside,San Diego,CA,USA
52260,NORDHOFF HIGH SCHOOL,34.441558,-119.267664,HS,Ojai,Ventura,CA,USA
52261,OAK GROVE SCHOOL,34.441922,-119.281125,HS,Ojai,Ventura,CA,USA
52262,OJAI VALLEY SCHOOL,34.444034,-119.257281,HS,Ojai,Ventura,CA,USA
52269,LUTHERAN HIGH SCHL ORANGE CNTY,33.82528,-117.828029,HS,Orange,Orange,CA,USA
51584,EXCELSIOR SCHOOL,34.172453,-118.118774,HS,Pasadena,Los Angeles,CA,USA
52274,ONTARIO HIGH SCHOOL,34.040953,-117.665732,HS,Ontario,San Bernardino,CA,USA
52275,CHAFFEY HIGH SCHOOL,34.07996,-117.652556,HS,Ontario,San Bernardino,CA,USA
52276,EL MODENA HIGH SCHOOL,33.790774,-117.811396,HS,Orange,Orange,CA,USA
52277,ELDORADO EMERSON PRIVATE SCH,33.794308,-117.809516,HS,Orange,Orange,CA,USA
52278,ONTARIO CHRISTIAN HIGH SCHOOL,34.032776,-117.666281,HS,Ontario,San Bernardino,CA,USA
52280,ORANGE HIGH SCHOOL,33.796383,-117.848364,HS,Orange,Orange,CA,USA
52282,MIRAMONTE HIGH SCHOOL,37.841632,-122.144465,HS,Orinda,Contra Costa,CA,USA
52285,ORLAND HIGH SCHOOL,39.752459,-122.191278,HS,Orland,Glenn,CA,USA
52293,LAS PLUMAS HIGH SCHOOL,39.479895,-121.537318,HS,Oroville,Butte,CA,USA
52295,OROVILLE HIGH SCHOOL,39.514624,-121.544992,HS,Oroville,Butte,CA,USA
52298,HUENEME HIGH SCHOOL,34.160553,-119.182211,HS,Oxnard,Ventura,CA,USA
52299,RIO MESA HIGH SCHOOL,34.25308,-119.14414,HS,Oxnard,Ventura,CA,USA
52305,OXNARD HIGH SCHOOL,34.218702,-119.214119,HS,Oxnard,Ventura,CA,USA
52308,OCEANA HIGH SCHOOL,37.638641,-122.487057,HS,Pacifica,San Mateo,CA,USA
52310,PACIFIC GROVE HIGH SCHOOL,36.610743,-121.923733,HS,Pacific Grove,Monterey,CA,USA
52313,PALISADES CHARTER HIGH SCHOOL,34.047755,-118.530915,HS,Pacific Palisade,Los Angeles,CA,USA
52315,PALMDALE HIGH SCHOOL,34.574139,-118.088214,HS,Palmdale,Los Angeles,CA,USA
52319,PALM DESERT HIGH SCHOOL,33.732547,-116.358797,HS,Palm Desert,Riverside,CA,USA
52320,PALM SPRINGS HIGH SCHOOL,33.817583,-116.521275,HS,Palm Springs,Riverside,CA,USA
52327,PALISADES CHARTER HIGH SCHOOL,34.047755,-118.530915,HS,Pacific Palisade,Los Angeles,CA,USA
52330,CASTILLEJA SCHOOL,37.438696,-122.152208,HS,Palo Alto,Santa Clara,CA,USA
52338,MOTHER OF DIVINE GRACE SCHOOL,34.443947,-119.238347,HS,Ojai,Ventura,CA,USA
52346,MID PENINSULA HIGH SCHOOL,37.476426,-122.151985,HS,Menlo Park,Santa Clara,CA,USA
52347,HENRY M GUNN SENIOR HIGH SCHL,37.40252,-122.133417,HS,Palo Alto,Santa Clara,CA,USA
52350,PALO ALTO SENIOR HIGH SCHOOL,37.436653,-122.156663,HS,Palo Alto,Santa Clara,CA,USA
52358,PALOS VERDES HIGH SCHOOL,33.779738,-118.419961,HS,Palos Verdes Estate,Los Angeles,CA,USA
52360,PARADISE HIGH SCHOOL,39.760995,-121.613306,HS,Paradise,Butte,CA,USA
52365,PARAMOUNT HIGH SCHOOL,33.90219,-118.153868,HS,Paramount,Los Angeles,CA,USA
52370,PARLIER HIGH SCHOOL,36.614461,-119.529372,HS,Parlier,Fresno,CA,USA
52384,COLONY HIGH SCHOOL,34.01832,-117.569133,HS,Ontario,San Bernardino,CA,USA
52388,JOHN MARSHALL FUNDAMENTAL SCH,34.16344,-118.112549,HS,Pasadena,Los Angeles,CA,USA
52390,JOHN MUIR HIGH SCHOOL,34.177925,-118.160462,HS,Pasadena,Los Angeles,CA,USA
52392,LA SALLE HIGH SCHOOL,34.161379,-118.068274,HS,Pasadena,Los Angeles,CA,USA
52395,MAYFIELD SENIOR SCHOOL,34.131593,-118.161064,HS,Pasadena,Los Angeles,CA,USA
52401,PASADENA HIGH SCHOOL,34.162521,-118.092516,HS,Pasadena,Los Angeles,CA,USA
52402,POLYTECHNIC SCHOOL,34.135184,-118.128818,HS,Pasadena,Los Angeles,CA,USA
52409,MARYSVILLE CHARTER ACAD ARTS,39.156438,-121.587185,HS,Marysville,Yuba,CA,USA
52410,OAKLAND SCHOOL FOR THE ARTS,37.807892,-122.270798,HS,Oakland,Alameda,CA,USA
52425,PASO ROBLES HIGH SCHOOL,35.616792,-120.670452,HS,Paso Robles,San Luis Obispo,CA,USA
52430,PATTERSON HIGH SCHOOL,37.471746,-121.137343,HS,Patterson,Stanislaus,CA,USA
52435,ROBERT L STEVENSON HIGH SCHOOL,36.582445,-121.951013,HS,Pebble Beach,Monterey,CA,USA
52440,PERRIS HIGH,33.800012,-117.223477,HS,Perris,Riverside,CA,USA
52445,PESCADERO HIGH SCHOOL,37.247606,-122.364624,HS,Pescadero,San Mateo,CA,USA
52462,PIEDMONT HIGH SCHOOL,37.823393,-122.232509,HS,Piedmont,Alameda,CA,USA
52464,PINOLE VALLEY HIGH SCHOOL,37.991761,-122.286301,HS,Pinole,Contra Costa,CA,USA
52475,PITTSBURG HIGH SCHOOL,38.019215,-121.884011,HS,Pittsburg,Contra Costa,CA,USA
52480,VALENCIA HIGH SCHOOL,33.877124,-117.867592,HS,Placentia,Orange,CA,USA
52487,SAINT BERNARD HIGH SCHOOL,33.954105,-118.432718,HS,Playa Del Rey,Los Angeles,CA,USA
52489,DISCOVERY CHARTER PREP SCHOOL,34.31905,-118.42497,HS,Pacoima,Los Angeles,CA,USA
52500,POINT ARENA HIGH SCHOOL,38.914643,-123.698688,HS,Point Arena,Mendocino,CA,USA
52501,GAREY HIGH SCHOOL,34.038508,-117.751644,HS,Pomona,Los Angeles,CA,USA
52502,DAMIEN HIGH SCHOOL,34.104287,-117.787482,HS,La Verne,Los Angeles,CA,USA
52503,GANESHA HIGH SCHOOL,34.06901,-117.79038,HS,Pomona,Los Angeles,CA,USA
52504,POMONA CATHOLIC HIGH SCHOOL,34.062647,-117.757783,HS,Pomona,Los Angeles,CA,USA
52505,POMONA HIGH SCHOOL,34.085878,-117.740177,HS,Pomona,Los Angeles,CA,USA
52508,INTERNATIONAL POLYTECHNIC HS,34.049971,-117.815136,HS,Pomona,Los Angeles,CA,USA
52513,MONACHE HIGH SCHOOL,36.082923,-119.051129,HS,Porterville,Tulare,CA,USA
52515,PORTERVILLE HIGH SCHOOL,36.064625,-119.028926,HS,Porterville,Tulare,CA,USA
52516,DIAMOND RANCH HIGH SCHOOL,34.021841,-117.778475,HS,Pomona,Los Angeles,CA,USA
52518,CITY OF KNOWLEDGE,34.10653,-117.749376,HS,Pomona,Los Angeles,CA,USA
52537,VILLAGE ACADEMY HIGH SCHOOL,34.061281,-117.722941,HS,Pomona,Los Angeles,CA,USA
52618,CLEVELAND HIGH SCHOOL,34.217834,-118.547458,HS,Reseda,Los Angeles,CA,USA
820615,WINSTON CHURCHILL HIGH SCHOOL,43.140853,-79.230835,HS,"St. Catharines",,ON,CANADA
52321,PALM VALLEY SCHOOL,33.790603,-116.442937,HS,Rancho Mirage,Riverside,CA,USA
52344,GORMAN LEARNING CENTER,34.068244,-117.217011,HS,Redlands,San Bernardino,CA,USA
52427,OPTIONS FOR YOUTH SAN JUAN,38.648362,-121.32887,HS,Rancho Cordova,Sacramento,CA,USA
52525,PORTOLA HIGH SCHOOL,39.801134,-120.466456,HS,Portola,Plumas,CA,USA
52530,POTTER VALLEY HIGH SCHOOL,39.3218,-123.105174,HS,Potter Valley,Mendocino,CA,USA
52533,POWAY HIGH SCHOOL,32.998402,-117.025387,HS,Poway,San Diego,CA,USA
52543,QUARTZ HILL HIGH SCHOOL,34.658331,-118.2385,HS,Quartz Hill,Los Angeles,CA,USA
52545,QUINCY SENIOR HIGH SCHOOL,39.939035,-120.937254,HS,Quincy,Plumas,CA,USA
52546,RANCHO CUCAMONGA HIGH SCHOOL,34.131846,-117.547982,HS,Rancho Cucamonga,San Bernardino,CA,USA
52550,RAMONA HIGH SCHOOL,33.026292,-116.868894,HS,Ramona,San Diego,CA,USA
52563,SANTA MARGARITA CATHOLIC HS,33.643375,-117.580206,HS,Rancho San Marga,Orange,CA,USA
52572,REDLANDS EAST VALLEY HS,34.061832,-117.128736,HS,Redlands,San Bernardino,CA,USA
52575,RED BLUFF HIGH SCHOOL,40.176714,-122.251124,HS,Red Bluff,Tehama,CA,USA
52580,ENTERPRISE HIGH SCHOOL,40.557591,-122.350744,HS,Redding,Shasta,CA,USA
52590,REDLANDS HIGH SCHOOL,34.055095,-117.170938,HS,Redlands,San Bernardino,CA,USA
